Provider.ID,Hospital.Name,Measure.ID,Gastrointestinal,Eye,Nervous.System,Musculoskeletal,Skin,Genitourinary,Cardiovascular,Measure.Start.Date,Measure.End.Date,lat,lon
10001,SOUTHEAST ALABAMA MEDICAL CENTER,OP-26,100,306,198,1399,513,1209,8,01/01/2013,12/31/2013,31.21537937900007,85.36146587999997
10005,MARSHALL MEDICAL CENTERS,OP-26,3473,116,1047,1023,5862,279,281,01/01/2013,12/31/2013,34.221334555000055,86.15937514699993
10006,ELIZA COFFEE MEMORIAL HOSPITAL,OP-26,5470,0,61,192,53,281,919,01/01/2013,12/31/2013,34.795039605000056,87.68507485399994
10007,MIZELL MEMORIAL HOSPITAL,OP-26,403,94,0,10,21,26,15,01/01/2013,12/31/2013,31.292159523000066,86.25539902199995
10008,CRENSHAW COMMUNITY HOSPITAL,OP-26,239,0,0,0,17,0,0,01/01/2013,12/31/2013,31.693116349000036,86.26549482999997
10011,ST. VINCENT'S EAST,OP-26,NA,NA,NA,NA,NA,NA,NA,01/01/2013,12/31/2013,33.59526551700003,86.66531866799994
10012,DEKALB REGIONAL MEDICAL CENTER,OP-26,1904,113,456,365,731,37,149,01/01/2013,12/31/2013,34.44060759100006,85.75726760699996
10016,SHELBY BAPTIST MEDICAL CENTER,OP-26,3393,0,112,1325,1567,552,278,01/01/2013,12/31/2013,33.25442932200008,86.81407933399998
10018,CALLAHAN EYE HOSPITAL,OP-26,0,6036,0,0,260,0,0,01/01/2013,12/31/2013,33.503140150000036,86.80242858299994
10019,HELEN KELLER HOSPITAL,OP-26,1994,424,775,426,1204,552,102,01/01/2013,12/31/2013,34.74643089500006,87.69893502799994
10021,DALE MEDICAL CENTER,OP-26,283,0,111,120,28,69,5,01/01/2013,12/31/2013,31.451350713000068,85.63094293699999
10022,CHEROKEE MEDICAL CENTER,OP-26,328,121,98,0,4,0,3,01/01/2013,12/31/2013,34.16275020900002,85.64348979299996
10023,BAPTIST MEDICAL CENTER SOUTH,OP-26,228,278,88,432,376,327,591,01/01/2013,12/31/2013,32.32718605800005,86.27659061099996
10024,JACKSON HOSPITAL & CLINIC INC,OP-26,914,31,192,438,80,674,554,01/01/2013,12/31/2013,32.36658118200006,86.28577143999996
10029,EAST ALABAMA MEDICAL CENTER AND SNF,OP-26,2595,941,1737,1246,1727,819,1942,01/01/2013,12/31/2013,32.63808805900004,85.40445272799997
10032,WEDOWEE HOSPITAL,OP-26,27,0,0,0,0,0,0,01/01/2013,12/31/2013,33.31155057800004,85.48497697399995
10033,UNIVERSITY OF ALABAMA HOSPITAL,OP-26,4332,0,24,862,173,681,2066,01/01/2013,12/31/2013,33.50902324400005,86.79972854499994
10034,COMMUNITY HOSPITAL INC,OP-26,716,45,35,102,6,9,6,01/01/2013,12/31/2013,32.534927776000075,85.90985375199995
10035,CULLMAN REGIONAL MEDICAL CENTER,OP-26,1923,1333,1640,574,94,574,83,01/01/2013,12/31/2013,34.19859606700004,86.80404845899994
10036,ANDALUSIA REGIONAL HOSPITAL,OP-26,366,99,87,260,935,109,36,01/01/2013,12/31/2013,31.297978657000044,86.49481434799998
10038,STRINGFELLOW MEMORIAL HOSPITAL,OP-26,1697,72,82,199,76,84,129,01/01/2013,12/31/2013,33.667678057000046,85.83426678999996
10039,HUNTSVILLE HOSPITAL,OP-26,17809,1122,45902,16190,13426,7231,3225,01/01/2013,12/31/2013,34.72108061800003,86.58128515799996
10040,GADSDEN REGIONAL MEDICAL CENTER,OP-26,2231,0,800,740,106,421,253,01/01/2013,12/31/2013,34.00938024200008,85.96778839099994
10044,MARION REGIONAL MEDICAL CENTER,OP-26,0,0,0,0,0,0,0,01/01/2013,12/31/2013,34.12668982400004,87.98987352799998
10045,FAYETTE MEDICAL CENTER,OP-26,356,212,20,18,331,21,16,01/01/2013,12/31/2013,33.70769618400004,87.82377536299998
10046,RIVERVIEW REGIONAL MEDICAL CENTER,OP-26,3883,0,17,1158,664,272,1295,01/01/2013,12/31/2013,34.00337850600005,86.00409109099996
10047,GEORGIANA MEDICAL CENTER,OP-26,0,0,0,0,0,0,0,01/01/2013,12/31/2013,31.636361081000075,86.74277274699995
10049,MEDICAL CENTER ENTERPRISE,OP-26,998,27,91,251,62,33,30,01/01/2013,12/31/2013,31.318719619000035,85.85572776899994
10051,GREENE COUNTY HEALTH SYSTEM,OP-26,0,0,0,0,0,0,0,01/01/2013,12/31/2013,32.84235320400006,87.89002235799995
10052,LAKE MARTIN COMMUNITY HOSPITAL,OP-26,0,0,0,0,0,0,0,01/01/2013,12/31/2013,32.81867788400007,85.74161727099994
10054,DECATUR MORGAN HOSPITAL - PARKWAY CAMPUS,OP-26,193,1705,690,144,122,833,2,01/01/2013,12/31/2013,34.57574902700003,87.01654568799995
10055,FLOWERS HOSPITAL,OP-26,2734,10,1890,728,1649,1487,575,01/01/2013,12/31/2013,31.235826770000074,85.45721340799997
10056,ST VINCENT'S BIRMINGHAM,OP-26,6334,0,6183,4202,247,745,1287,01/01/2013,12/31/2013,33.50797325600007,86.78874763899995
10058,BIBB MEDICAL CENTER,OP-26,0,0,0,0,0,0,0,01/01/2013,12/31/2013,32.95133452600004,87.14764515199994
10059,LAWRENCE MEDICAL CENTER,OP-26,404,0,0,0,104,0,0,01/01/2013,12/31/2013,34.482945975000064,87.28600283599997
10061,HIGHLANDS MEDICAL CENTER,OP-26,1925,213,99,70,43,137,18,01/01/2013,12/31/2013,34.66168264100003,86.04673208299994
10062,WIREGRASS MEDICAL CENTER,OP-26,766,0,0,0,333,36,0,01/01/2013,12/31/2013,31.04804746900004,85.89112586699997
10065,RUSSELL HOSPITAL,OP-26,978,702,239,310,41,379,140,01/01/2013,12/31/2013,32.931334950000064,85.96878845399993
10069,MEDICAL CENTER BARBOUR,OP-26,178,0,15,3,167,51,2,01/01/2013,12/31/2013,31.88801827700007,85.15606109899994
10073,CLAY COUNTY HOSPITAL,OP-26,174,115,0,3,8,0,1,01/01/2013,12/31/2013,33.27665890500003,85.82361169599994
10078,NORTHEAST ALABAMA REGIONAL MED CENTER,OP-26,1502,461,288,701,1319,661,1243,01/01/2013,12/31/2013,33.657075605000045,85.82345700699994
10079,ATHENS-LIMESTONE HOSPITAL,OP-26,1142,335,150,338,43,105,52,01/01/2013,12/31/2013,34.80357778700005,86.97837640099993
10083,SOUTH BALDWIN REGIONAL MEDICAL CENTER,OP-26,3766,277,865,1614,2773,552,170,01/01/2013,12/31/2013,30.425680471000078,87.68324211899994
10085,DECATUR MORGAN HOSPITAL - DECATUR CAMPUS,OP-26,1264,32,81,952,2377,1563,307,01/01/2013,12/31/2013,34.59115554700003,86.97263926799997
10086,NORTHWEST MEDICAL CENTER,OP-26,458,243,13,169,2059,44,71,01/01/2013,12/31/2013,33.929365020000034,87.82463746799993
10087,UNIVERSITY OF SOUTH ALABAMA MEDICAL CENTER,OP-26,54,0,16,411,0,0,181,01/01/2013,12/31/2013,30.708153140000036,88.09899576799995
10089,WALKER BAPTIST MEDICAL CENTER,OP-26,3415,953,3524,695,20,385,61,01/01/2013,12/31/2013,33.84104873800004,87.23655598599998
10090,PROVIDENCE HOSPITAL,OP-26,4455,1171,1728,425,106,931,379,01/01/2013,12/31/2013,30.68208912600005,88.19924246199997
10091,GROVE HILL MEMORIAL HOSPITAL,OP-26,489,0,0,0,16,0,2,01/01/2013,12/31/2013,31.69477711500008,87.77707493799994
10092,D C H REGIONAL MEDICAL CENTER,OP-26,2978,96,8574,3147,23566,1139,2070,01/01/2013,12/31/2013,33.20617336400005,87.52548321599994
10095,HALE COUNTY HOSPITAL,OP-26,0,0,0,0,0,0,0,01/01/2013,12/31/2013,32.694750111000076,87.58692229699994
10097,ELMORE COMMUNITY HOSPITAL,OP-26,45,92,3,29,31,31,0,01/01/2013,12/31/2013,32.55226755500007,86.18703624199998
10099,D W MCMILLAN MEMORIAL HOSPITAL,OP-26,258,0,6,33,43,19,39,01/01/2013,12/31/2013,31.127213651000034,87.07247839899998
10100,GULF HEALTH HOSPITALS, INC., D/B/A/THOMAS HOSPITAL,OP-26,1382,332,1469,1139,87,367,170,01/01/2013,12/31/2013,30.519966314000044,87.88950804299998
10101,CITIZENS BMC,OP-26,1949,450,522,91,57,61,16,01/01/2013,12/31/2013,33.43980936100007,86.09087857499998
10102,J PAUL JONES HOSPITAL,OP-26,0,0,0,0,0,0,0,01/01/2013,12/31/2013,31.99807089600006,87.29947924799995
10103,BAPTIST MEDICAL CENTER-PRINCETON,OP-26,5601,1066,1544,503,253,165,432,01/01/2013,12/31/2013,33.499166366000054,86.84589505599996
10104,TRINITY MEDICAL CENTER,OP-26,1165,360,1720,1781,1237,847,205,01/01/2013,12/31/2013,33.51533518400004,86.74670548499995
10108,PRATTVILLE BAPTIST HOSPITAL,OP-26,1831,447,2,28,13,0,28,01/01/2013,12/31/2013,32.464199515000075,86.45095276799998
10109,PICKENS COUNTY MEDICAL CENTER,OP-26,50,0,0,1,11,0,1,01/01/2013,12/31/2013,33.274750813000026,88.08964716199995
10110,BULLOCK COUNTY HOSPITAL,OP-26,0,0,0,0,0,0,0,01/01/2013,12/31/2013,32.141250273000026,85.70150667999997
10112,BRYAN W WHITFIELD MEM HOSP INC,OP-26,513,157,87,121,238,99,21,01/01/2013,12/31/2013,32.50364788300004,87.83705445699997
10113,MOBILE INFIRMARY ASSOCIATION, D/B/A MOBILE INFIRMARY,OP-26,5002,197,4017,385,205,965,1091,01/01/2013,12/31/2013,30.695458384000062,88.08085473499995
10114,MEDICAL WEST, AN AFFILIATE OF UAB HEALTH SYSTEM,OP-26,2376,922,666,371,653,117,804,01/01/2013,12/31/2013,33.373014854000076,86.99174385199996
10118,VAUGHAN REGIONAL MEDICAL CENTER PARKWAY CAMPUS,OP-26,589,204,51,104,304,180,217,01/01/2013,12/31/2013,32.43003551100003,87.05490514999997
10120,MONROE COUNTY HOSPITAL,OP-26,954,31,0,6,9,0,0,01/01/2013,12/31/2013,31.49838524300003,87.31923289899999
10125,LAKELAND COMMUNITY HOSPITAL,OP-26,210,83,1,1,46,0,6,01/01/2013,12/31/2013,34.241099199000075,87.59093156099999
10126,TROY REGIONAL MEDICAL CENTER,OP-26,1404,0,240,103,468,73,20,01/01/2013,12/31/2013,31.780395441000053,85.94585267399998
10128,JACKSON MEDICAL CENTER,OP-26,0,0,0,0,0,0,0,01/01/2013,12/31/2013,31.530602078000072,87.89346675299998
10129,GULF HEALTH HOSPITALS, INC., D/B/A NORTH BALDWIN INFIRMARY,OP-26,447,115,157,52,37,19,27,01/01/2013,12/31/2013,30.90193608800007,87.78311330099996
10130,ST VINCENT'S ST CLAIR,OP-26,785,76,41,75,669,3,54,01/01/2013,12/31/2013,33.604999676000034,86.30046997699998
10131,CRESTWOOD MEDICAL CENTER,OP-26,4274,0,3091,1637,1845,385,38,01/01/2013,12/31/2013,34.692473310000025,86.57259625099994
10138,HILL HOSPITAL OF SUMTER COUNTY,OP-26,0,0,0,0,0,0,0,01/01/2013,12/31/2013,32.49162270900007,88.29593628999999
10139,BROOKWOOD MEDICAL CENTER,OP-26,2036,634,3987,2205,3823,1579,750,01/01/2013,12/31/2013,33.46306652900006,86.77656110699996
10144,SPRINGHILL MEDICAL CENTER,OP-26,3495,0,397,335,389,812,280,01/01/2013,12/31/2013,30.685856122000075,88.13177286999996
10146,RMC JACKSONVILLE,OP-26,326,109,0,183,63,59,0,01/01/2013,12/31/2013,33.78560261500007,85.76124893499997
10148,EVERGREEN MEDICAL CENTER,OP-26,179,2,46,2,0,0,0,01/01/2013,12/31/2013,31.43103941800007,86.94130531699994
10149,BAPTIST MEDICAL CENTER EAST,OP-26,4429,0,20,168,27,222,105,01/01/2013,12/31/2013,32.376357615000074,86.17186895999998
10150,L V STABLER MEMORIAL HOSPITAL,OP-26,511,0,29,177,402,0,2,01/01/2013,12/31/2013,31.829742777000035,86.64611473899998
10157,SHOALS HOSPITAL,OP-26,1805,0,33,198,24,18,0,01/01/2013,12/31/2013,34.744994844000075,87.67642553599995
10158,RUSSELLVILLE HOSPITAL,OP-26,461,155,155,188,57,5,17,01/01/2013,12/31/2013,34.511260994000054,87.71760501499995
10164,COOSA VALLEY MEDICAL CENTER,OP-26,562,403,6,431,672,159,65,01/01/2013,12/31/2013,33.164645473000064,86.25412046599996
10168,JACK HUGHSTON MEMORIAL HOSPITAL,OP-26,357,0,0,3231,0,0,0,01/01/2013,12/31/2013,32.509125106000056,85.00575018799998
10169,ATMORE COMMUNITY HOSPITAL,OP-26,506,0,45,3,11,6,12,01/01/2013,12/31/2013,31.017000387000053,87.47965811999995
11300,WASHINGTON COUNTY HOSPITAL,OP-26,0,0,0,0,0,0,0,01/01/2013,12/31/2013,31.459573689000024,88.23330173799997
11302,RED BAY HOSPITAL,OP-26,NA,NA,NA,NA,NA,NA,NA,01/01/2013,12/31/2013,34.45749636600004,88.14712255699999
11304,CHOCTAW GENERAL HOSPITAL,OP-26,NA,NA,NA,NA,NA,NA,NA,01/01/2013,12/31/2013,32.100342228000045,88.21280179099995
11305,ST. VINCENT'S BLOUNT,OP-26,NA,NA,NA,NA,NA,NA,NA,01/01/2013,12/31/2013,NA,NA
20001,PROVIDENCE ALASKA MEDICAL CENTER,OP-26,2890,642,16,268,304,386,85,01/01/2013,12/31/2013,61.205296213000054,149.81210628299996
20006,MAT-SU REGIONAL MEDICAL CENTER,OP-26,2826,404,0,298,120,199,382,01/01/2013,12/31/2013,61.56200592200008,149.26054740599997
20008,BARTLETT REGIONAL HOSPITAL,OP-26,720,40,86,259,3,129,12,01/01/2013,12/31/2013,58.32944252500005,134.46585505299998
20012,FAIRBANKS MEMORIAL HOSPITAL,OP-26,3792,604,1772,535,164,159,125,01/01/2013,12/31/2013,64.83294821500004,147.73656572899998
20017,ALASKA REGIONAL HOSPITAL,OP-26,1794,418,28,537,39,219,185,01/01/2013,12/31/2013,61.20975602900006,149.82899175899996
20024,CENTRAL PENINSULA GENERAL HOSPITAL,OP-26,937,177,461,382,15,82,39,01/01/2013,12/31/2013,60.49373236500003,151.07808299499996
20026,ALASKA NATIVE MEDICAL CENTER,OP-26,1453,913,574,2302,2246,461,152,01/01/2013,12/31/2013,61.18186699900008,149.80259690399998
21306,PROVIDENCE KODIAK ISLAND MEDICAL CENTER,OP-26,373,0,0,68,6,7,3,01/01/2013,12/31/2013,57.800350448000074,152.37476799199996
21311,PEACEHEALTH KETCHIKAN MEDICAL CENTER,OP-26,1122,13,137,254,33,59,16,01/01/2013,12/31/2013,55.35288696600003,131.68635191899995
21313,SOUTH PENINSULA HOSPITAL,OP-26,NA,NA,NA,NA,NA,NA,NA,01/01/2013,12/31/2013,59.65202045800004,151.55009565199998
30001,MARYVALE HOSPITAL,OP-26,232,0,3,3,7,5,22,01/01/2013,12/31/2013,33.502187649000064,112.17062033999997
30002,BANNER GOOD SAMARITAN MEDICAL CENTER,OP-26,2910,0,58,1026,2084,351,1360,01/01/2013,12/31/2013,33.465718981000066,112.05831350599999
30006,TUCSON MEDICAL CENTER,OP-26,1969,162,6154,2270,4288,1140,1444,01/01/2013,12/31/2013,32.25077902700008,110.87971206099996
30007,VERDE VALLEY MEDICAL CENTER,OP-26,2210,0,392,468,20,190,294,01/01/2013,12/31/2013,34.735296310000024,112.03155185499998
30010,CARONDELET ST  MARYS HOSPITAL,OP-26,3248,0,122,425,104,166,394,01/01/2013,12/31/2013,32.22880538600003,110.99906526799998
30011,CARONDELET ST JOSEPH'S HOSPITAL,OP-26,865,1187,184,753,209,454,229,01/01/2013,12/31/2013,32.226042660000076,110.85782597899998
30012,YAVAPAI REGIONAL MEDICAL CENTER,OP-26,2331,0,45,150,26,197,65,01/01/2013,12/31/2013,34.56016830800007,112.48212708199998
30013,YUMA REGIONAL MEDICAL CENTER,OP-26,970,167,61,595,51,624,1346,01/01/2013,12/31/2013,32.68318952100003,114.63326205499999
30014,JOHN C LINCOLN NORTH MOUNTAIN HOSPITAL,OP-26,1140,3,685,600,219,222,283,01/01/2013,12/31/2013,33.56779857500004,112.07020128399995
30016,BANNER CASA GRANDE MEDICAL CENTER,OP-26,962,0,0,1058,97,1388,38,01/01/2013,12/31/2013,32.87964292200007,111.70959654299998
30022,MARICOPA MEDICAL CENTER,OP-26,111,242,29,49,121,113,16,01/01/2013,12/31/2013,33.458512711000026,112.02587069799995
30023,FLAGSTAFF MEDICAL CENTER,OP-26,328,11,101,388,86,144,149,01/01/2013,12/31/2013,35.208646728000076,111.64517176599998
30024,ST JOSEPH'S HOSPITAL AND MEDICAL CENTER,OP-26,2295,0,70,263,297,1169,389,01/01/2013,12/31/2013,33.48034710300004,112.07987857499995
30030,PHOENIX BAPTIST HOSPITAL,OP-26,2226,0,441,1402,3607,205,892,01/01/2013,12/31/2013,33.524169474000075,112.10224547099995
30033,PAYSON REGIONAL MEDICAL CENTER,OP-26,970,196,382,123,437,25,61,01/01/2013,12/31/2013,34.23111763600008,111.32157071499995
30036,CHANDLER REGIONAL MEDICAL CENTER,OP-26,1784,0,87,377,5757,942,987,01/01/2013,12/31/2013,33.298672999000075,111.87516587299996
30037,ST LUKE'S MEDICAL CENTER,OP-26,989,1129,7079,1127,2041,10,505,01/01/2013,12/31/2013,33.451447244000065,112.04325982599994
30038,SCOTTSDALE HEALTHCARE-OSBORN MEDICAL CENTER,OP-26,2840,143,116,722,71,99,41,01/01/2013,12/31/2013,33.487648157000024,111.92203051799999
30043,SIERRA VISTA REGIONAL HEALTH CENTER,OP-26,4071,0,0,347,18,120,34,01/01/2013,12/31/2013,31.55461312700004,110.23053750599996
30055,KINGMAN REGIONAL MEDICAL CENTER,OP-26,702,0,1659,1463,2006,38,643,01/01/2013,12/31/2013,35.220057774000054,114.03579356399996
30061,BANNER BOSWELL MEDICAL CENTER,OP-26,3591,0,352,1079,937,565,866,01/01/2013,12/31/2013,33.60478336500006,112.28299086199996
30062,SUMMIT HEALTHCARE REGIONAL MEDICAL CENTER,OP-26,1103,12,506,655,1492,222,279,01/01/2013,12/31/2013,34.20201926300007,110.01690832499997
30064,UNIVERSITY OF ARIZONA MEDICAL CTR-UNIVERSITY, THE,OP-26,2656,118,334,6098,2266,1634,1394,01/01/2013,12/31/2013,32.24073190000007,110.94412878899999
30065,BANNER DESERT MEDICAL CENTER,OP-26,3417,0,411,882,468,513,909,01/01/2013,12/31/2013,33.39029071400006,111.87467288799996
30068,MT GRAHAM REGIONAL MEDICAL CENTER,OP-26,1160,0,6,491,43,8,16,01/01/2013,12/31/2013,32.82177302400004,109.73300058699999
30069,HAVASU REGIONAL MEDICAL CENTER,OP-26,1859,0,2263,1487,3815,198,334,01/01/2013,12/31/2013,34.479547085000036,114.33848318099996
30077,SAN CARLOS INDIAN HOSPITAL,OP-26,NA,NA,NA,NA,NA,NA,NA,01/01/2013,12/31/2013,33.324273610000034,109.89276799199996
30083,PARADISE VALLEY HOSPITAL,OP-26,699,0,112,2209,2636,254,178,01/01/2013,12/31/2013,33.64057323800006,111.99805000599997
30085,NORTHWEST MEDICAL CENTER,OP-26,3304,211,394,2640,5034,499,331,01/01/2013,12/31/2013,32.31963078100006,111.01204821799996
30087,SCOTTSDALE HEALTHCARE-SHEA MEDICAL CENTER,OP-26,3097,0,192,1343,80,1402,45,01/01/2013,12/31/2013,33.58243461300003,111.88597995599997
30088,BANNER BAYWOOD MEDICAL CENTER,OP-26,2197,0,84,454,1711,476,686,01/01/2013,12/31/2013,33.41045795000008,111.68797096999998
30089,BANNER THUNDERBIRD MEDICAL CENTER,OP-26,3882,0,50,1366,823,656,749,01/01/2013,12/31/2013,33.610723377000056,112.17962081299999
30092,JOHN C LINCOLN DEER VALLEY HOSPITAL,OP-26,3572,0,326,831,121,699,287,01/01/2013,12/31/2013,33.66557084000004,112.117207469
30093,BANNER DEL E WEBB MEDICAL CENTER,OP-26,3730,0,97,2048,147,693,435,01/01/2013,12/31/2013,33.65832529100004,112.37201500299994
30094,ARROWHEAD HOSPITAL,OP-26,1891,0,672,531,246,596,488,01/01/2013,12/31/2013,33.65416094500006,112.20358712199999
30101,WESTERN ARIZONA REGIONAL MEDICAL CENTER,OP-26,1671,0,184,246,1746,59,103,01/01/2013,12/31/2013,35.10982819100008,114.55480779499999
30103,MAYO CLINIC HOSPITAL,OP-26,3397,0,2336,1981,975,557,781,01/01/2013,12/31/2013,33.66284454100003,111.95445227099998
30105,BANNER HEART HOSPITAL,OP-26,3,0,0,0,2,0,457,01/01/2013,12/31/2013,33.41046245600006,111.68641534899996
30107,ARIZONA SPINE AND JOINT HOSPITAL,OP-26,0,0,0,400,0,0,0,01/01/2013,12/31/2013,33.379257616000075,111.73466027599994
30108,THE SURGICAL HOSPITAL OF PHOENIX,OP-26,105,0,191,325,6,0,1,01/01/2013,12/31/2013,33.53215043300003,112.09959714599995
30110,WEST VALLEY HOSPITAL,OP-26,2693,0,37,216,976,272,279,01/01/2013,12/31/2013,33.464232638000055,112.35252069899997
30111,UNIVERSITY OF ARIZONA MEDICAL CTR- SOUTH CAM, THE,OP-26,2105,145,15,348,73,147,9,01/01/2013,12/31/2013,32.17784658700003,110.93074518099996
30112,ARIZONA ORTHOPEDIC AND SURGICAL SPECIALTY HOSPITAL,OP-26,0,0,0,2825,0,0,0,01/01/2013,12/31/2013,33.334802583000055,111.89087051299998
30114,ORO VALLEY HOSPITAL,OP-26,1822,64,79,366,26,278,188,01/01/2013,12/31/2013,32.42733801900005,110.94721047299998
30115,BANNER ESTRELLA MEDICAL CENTER,OP-26,2772,0,44,375,126,970,369,01/01/2013,12/31/2013,33.479662844000075,112.25639850299996
30117,VALLEY VIEW MEDICAL CENTER,OP-26,535,110,362,557,2080,125,142,01/01/2013,12/31/2013,35.002180872000054,114.59796535899994
30118,YAVAPAI REGIONAL MEDICAL CENTER-EAST CAMPUS,OP-26,10,0,12,282,9,34,29,01/01/2013,12/31/2013,34.588348076000045,112.33220827599996
30119,MERCY GILBERT MEDICAL CENTER,OP-26,1164,0,101,730,68,428,373,01/01/2013,12/31/2013,33.285886563000076,111.75528291999996
30120,GILBERT HOSPITAL,OP-26,7,0,0,2,0,0,0,01/01/2013,12/31/2013,33.31369047600003,111.68681292599996
30121,MOUNTAIN VISTA MEDICAL CENTER, LP,OP-26,1752,153,358,973,806,486,298,01/01/2013,12/31/2013,33.391080027000044,111.61530807799994
30122,BANNER GATEWAY MEDICAL CENTER,OP-26,1823,0,26,188,301,481,575,01/01/2013,12/31/2013,33.384175232000075,111.71967824399997
30123,SCOTTSDALE HEALTHCARE-THOMPSON PEAK HOSPITAL,OP-26,1574,0,7,134,14,254,9,01/01/2013,12/31/2013,33.669828521000056,111.92258015599998
30130,BANNER IRONWOOD MEDICAL CENTER,OP-26,768,0,4,173,26,72,18,01/01/2013,12/31/2013,33.21469151400004,111.56347948299998
30131,OASIS HOSPITAL,OP-26,0,0,0,681,0,0,0,01/01/2013,12/31/2013,33.45605160400004,111.99526083899997
30132,FLORENCE HOSPITAL AT ANTHEM, LLC,OP-26,14,0,0,0,0,21,0,01/01/2013,12/31/2013,33.073234281000055,111.48679916399999
30134,BANNER GOLDFIELD MEDICAL CENTER,OP-26,2,0,0,0,1,1,8,01/01/2013,12/31/2013,33.393377677000046,111.56717035299994
31300,WICKENBURG COMMUNITY HOSPITAL,OP-26,NA,NA,NA,NA,NA,NA,NA,01/01/2013,12/31/2013,33.97807773400007,112.73881050299997
31304,PAGE HOSPITAL,OP-26,264,0,167,16,8,12,16,01/01/2013,12/31/2013,36.91701744200003,111.46311930499996
31309,SAGE MEMORIAL HOSPITAL,OP-26,NA,NA,NA,NA,NA,NA,NA,01/01/2013,12/31/2013,35.657215689000054,109.08917660499998
31313,CARONDELET HOLY CROSS HOSPITAL,OP-26,516,0,0,2,2,38,0,01/01/2013,12/31/2013,31.341063516000077,110.95918152899998
31314,COBRE VALLEY REGIONAL MEDICAL CENTER,OP-26,NA,NA,NA,NA,NA,NA,NA,01/01/2013,12/31/2013,33.40719324100007,110.82634669699996
31315,WHITE MOUNTAIN REGIONAL MEDICAL CENTER,OP-26,NA,NA,NA,NA,NA,NA,NA,01/01/2013,12/31/2013,34.13230489700004,109.28639711199997
40001,SILOAM SPRINGS REGIONAL HOSPITAL,OP-26,541,446,6,65,5,2,9,01/01/2013,12/31/2013,36.18995440300006,94.50968759599994
40002,JOHNSON REGIONAL MEDICAL CENTER,OP-26,642,86,80,20,13,120,43,01/01/2013,12/31/2013,35.46439977400007,93.44588866599997
40004,WASHINGTON REGIONAL MED CTR AT NORTH HILLS,OP-26,1135,0,230,1381,3073,369,1497,01/01/2013,12/31/2013,36.11084882000006,94.15791478999995
40007,ST VINCENT INFIRMARY MEDICAL CENTER,OP-26,754,0,364,532,3594,1275,1090,01/01/2013,12/31/2013,34.75190411400007,92.33741151599997
40010,MERCY HOSPITAL NORTHWEST ARKANSAS,OP-26,6443,0,5456,734,5050,603,766,01/01/2013,12/31/2013,36.311559154000065,94.18375431699997
40011,CHAMBERS MEMORIAL HOSPITAL,OP-26,479,506,0,12,331,0,0,01/01/2013,12/31/2013,35.054949898000075,93.38851771599997
40014,WHITE COUNTY MEDICAL CENTER,OP-26,747,0,104,259,53,267,111,01/01/2013,12/31/2013,35.25044602300005,91.69461538899998
40015,MENA REGIONAL HEALTH SYSTEM,OP-26,519,203,0,45,14,61,7,01/01/2013,12/31/2013,34.58906940500003,94.22244717999996
40016,UAMS MEDICAL CENTER,OP-26,1671,740,133,767,104,416,50,01/01/2013,12/31/2013,34.751541606000046,92.32077779799994
40017,NORTH ARKANSAS REGIONAL MEDICAL CENTER,OP-26,70,0,0,885,45,180,0,01/01/2013,12/31/2013,36.23580825100004,93.10718851199994
40018,SUMMIT MEDICAL CENTER,OP-26,0,0,0,28,237,37,0,01/01/2013,12/31/2013,35.43652079900005,94.33810810799997
40019,FORREST CITY MEDICAL CENTER,OP-26,257,0,8,10,14,21,7,01/01/2013,12/31/2013,35.03948829600006,90.77183719699997
40020,ST BERNARDS MEDICAL CENTER,OP-26,1392,0,298,831,7159,819,1075,01/01/2013,12/31/2013,35.83743874800007,90.70278663899995
40022,NORTHWEST MEDICAL CENTER-SPRINGDALE,OP-26,2356,56,515,1090,2388,433,319,01/01/2013,12/31/2013,36.18136270600007,94.13665058099997
40026,ST VINCENT HOT SPRINGS,OP-26,2632,1794,338,834,101,909,527,01/01/2013,12/31/2013,34.46605822200007,93.06620982399994
40027,BAXTER REGIONAL MEDICAL CENTER,OP-26,700,50,50,500,50,150,350,01/01/2013,12/31/2013,36.342963317000056,92.39518057199996
40029,CONWAY REGIONAL MEDICAL CENTER,OP-26,1320,729,786,768,121,509,343,01/01/2013,12/31/2013,35.084896678000064,92.45915631999998
40036,BAPTIST HEALTH MEDICAL CENTER NORTH LITTLE ROCK,OP-26,757,0,56,872,2520,589,695,01/01/2013,12/31/2013,34.78341792800006,92.21825285899996
40039,ARKANSAS METHODIST MEDICAL CENTER,OP-26,964,72,186,23,13,78,85,01/01/2013,12/31/2013,36.052552579000064,90.49840947599995
40041,ST MARYS REGIONAL MEDICAL CENTER,OP-26,1797,314,0,667,0,197,1048,01/01/2013,12/31/2013,35.28286750400002,93.14977190699994
40047,FIVE RIVERS MEDICAL CENTER,OP-26,452,0,0,86,16,0,10,01/01/2013,12/31/2013,36.289971028000025,90.99769664299998
40050,OUACHITA COUNTY MEDICAL CENTER,OP-26,414,429,170,20,30,174,18,01/01/2013,12/31/2013,33.573290384000074,92.83545442899998
40051,DREW MEMORIAL HOSPITAL,OP-26,NA,NA,NA,NA,NA,NA,NA,01/01/2013,12/31/2013,33.611110824000036,91.81497827999999
40055,SPARKS REGIONAL MEDICAL CENTER,OP-26,345,0,141,120,3048,81,902,01/01/2013,12/31/2013,35.374392476000025,94.42129676999997
40062,MERCY HOSPITAL FORT SMITH,OP-26,221,250,6219,1412,2536,254,365,01/01/2013,12/31/2013,35.35368560400008,94.35299525699998
40067,MAGNOLIA REGIONAL MEDICAL CENTER,OP-26,37,412,0,109,12,0,6,01/01/2013,12/31/2013,33.275103165000075,93.23997117899995
40069,GREAT RIVER MEDICAL CENTER,OP-26,329,0,121,15,12,180,10,01/01/2013,12/31/2013,35.94156277700006,89.91889327999996
40071,JEFFERSON REGIONAL MEDICAL CENTER,OP-26,301,0,58,255,1018,159,158,01/01/2013,12/31/2013,34.189114645000075,92.01825713899996
40072,BAPTIST HEALTH MEDICAL CENTER - STUTTGART,OP-26,200,89,16,47,50,60,4,01/01/2013,12/31/2013,34.51770167800004,91.55757424499996
40074,NORTH METRO MEDICAL CENTER,OP-26,18,0,82,62,7,24,5,01/01/2013,12/31/2013,34.87241780800008,92.12487023699998
40076,BAPTIST HEALTH MEDICAL CENTER - HOT SPRING CO,OP-26,241,0,0,1,25,3,5,01/01/2013,12/31/2013,34.360050337000075,92.78573654899998
40078,NATIONAL PARK MEDICAL CENTER,OP-26,800,0,173,497,88,62,515,01/01/2013,12/31/2013,34.48563367500003,93.03320592599994
40080,HARRIS HOSPITAL INC,OP-26,173,50,0,9,20,28,3,01/01/2013,12/31/2013,35.608097894000025,91.26476906499994
40084,SALINE MEMORIAL HOSPITAL,OP-26,77,546,312,353,471,22,26,01/01/2013,12/31/2013,34.57444970600005,92.58438253799994
40085,HELENA REGIONAL MEDICAL CENTER,OP-26,129,22,0,0,9,1,5,01/01/2013,12/31/2013,34.50843221400004,90.62733774399999
40088,MEDICAL CENTER SOUTH ARKANSAS,OP-26,244,194,282,134,754,155,266,01/01/2013,12/31/2013,33.21840734400007,92.67236526799996
40114,BAPTIST HEALTH MEDICAL CENTER-LITTLE ROCK,OP-26,1024,611,644,1547,1006,986,1454,01/01/2013,12/31/2013,34.75236394800004,92.34499836399999
40118,NEA BAPTIST MEMORIAL HOSPITAL,OP-26,1114,196,1078,1131,1458,148,392,01/01/2013,12/31/2013,35.86424885400004,90.63899683699998
40119,WHITE RIVER MEDICAL CENTER,OP-26,2795,0,6712,3760,1676,1172,778,01/01/2013,12/31/2013,35.76958198400007,91.63575812599998
40132,LEVI HOSPITAL,OP-26,0,0,0,0,0,0,0,01/01/2013,12/31/2013,34.50962648700005,93.05747182899995
40134,ARKANSAS HEART HOSPITAL, LLC,OP-26,98,0,0,0,4,3,254,01/01/2013,12/31/2013,34.73753861200004,92.39446730899994
40137,ST VINCENT MEDICAL CENTER NORTH,OP-26,98,0,123,99,4,39,32,01/01/2013,12/31/2013,34.814353175000065,92.20719155499995
40147,ARKANSAS SURGICAL HOSPITAL,OP-26,0,0,42,24,45,0,48,01/01/2013,12/31/2013,34.80163428800006,92.34824928599994
40152,PHYSICIANS' SPECIALTY HOSPITAL,OP-26,128,0,0,1748,0,110,0,01/01/2013,12/31/2013,36.121280427000045,94.13377448599994
40153,WADLEY REGIONAL MEDICAL CENTER AT HOPE,OP-26,29,0,1,58,414,0,0,01/01/2013,12/31/2013,33.64899251600008,93.58704804599995
41302,RIVER VALLEY MEDICAL CENTER,OP-26,NA,NA,NA,NA,NA,NA,NA,01/01/2013,12/31/2013,35.22024559600004,93.15653234399997
41307,CROSSRIDGE COMMUNITY HOSPITAL,OP-26,NA,NA,NA,NA,NA,NA,NA,01/01/2013,12/31/2013,35.221052695000026,90.78737228699998
41308,MCGEHEE HOSPITAL,OP-26,NA,NA,NA,NA,NA,NA,NA,01/01/2013,12/31/2013,33.63500656400004,91.40209455499996
41310,STONE COUNTY MEDICAL CENTER,OP-26,NA,NA,NA,NA,NA,NA,NA,01/01/2013,12/31/2013,35.86171393200004,92.09506903799996
41311,HOWARD MEMORIAL HOSPITAL,OP-26,478,660,0,57,793,99,17,01/01/2013,12/31/2013,33.95005630600008,93.87839403599997
41312,BAPTIST HEALTH MEDICAL CENTER HEBER SPINGS,OP-26,632,209,16,90,29,10,23,01/01/2013,12/31/2013,35.50438665400003,92.00074539999997
41313,OZARK HEALTH,OP-26,2,0,0,0,0,8,0,01/01/2013,12/31/2013,35.559681316000024,92.45001190199997
41321,BAPTIST HEALTH MEDICAL CENTER-ARKADELPHIA,OP-26,94,372,18,66,384,2,0,01/01/2013,12/31/2013,34.12314540500006,93.08851660599998
41323,ASHLEY COUNTY MEDICAL CENTER,OP-26,NA,NA,NA,NA,NA,NA,NA,01/01/2013,12/31/2013,33.13762948200008,91.93947587099996
41327,BRADLEY COUNTY MEDICAL CENTER,OP-26,NA,NA,NA,NA,NA,NA,NA,01/01/2013,12/31/2013,33.61062379200007,92.05871625399999
41328,CHICOT MEMORIAL MEDICAL CENTER,OP-26,NA,NA,NA,NA,NA,NA,NA,01/01/2013,12/31/2013,33.33281154600007,91.28422610199999
41329,MERCY HOSPITAL BERRYVILLE,OP-26,NA,NA,NA,NA,NA,NA,NA,01/01/2013,12/31/2013,36.35911714500003,93.55125151999994
41331,OZARKS COMMUNITY HOSPITAL OF GRAVETTE,OP-26,NA,NA,NA,NA,NA,NA,NA,01/01/2013,12/31/2013,36.40827810700006,94.46055008599996
50002,ST ROSE HOSPITAL,OP-26,477,0,109,404,904,98,123,01/01/2013,12/31/2013,37.63313754400008,122.08974566499995
50006,ST JOSEPH HOSPITAL,OP-26,1699,30,1337,646,60,307,490,01/01/2013,12/31/2013,40.78451311400005,124.14153616899995
50007,PENINSULA MEDICAL CENTER,OP-26,1115,1432,0,720,0,116,17,01/01/2013,12/31/2013,37.59345872000006,122.38429885599999
50008,CALIFORNIA PACIFIC MEDICAL CTR-DAVIES CAMPUS HOSP,OP-26,27,0,229,239,43,164,52,01/01/2013,12/31/2013,37.76910334200005,122.43464780999994
50009,QUEEN OF THE VALLEY MEDICAL CENTER,OP-26,2148,1110,242,765,1020,293,385,01/01/2013,12/31/2013,38.32351797500007,122.29621497699998
50013,ST HELENA HOSPITAL,OP-26,776,165,95,473,30,239,480,01/01/2013,12/31/2013,38.54204403800003,122.47535602899995
50014,SUTTER AMADOR HOSPITAL,OP-26,803,174,227,53,5,104,113,01/01/2013,12/31/2013,38.350920389000066,120.76646522799996
50017,MERCY GENERAL HOSPITAL,OP-26,1156,1197,903,931,92,500,1237,01/01/2013,12/31/2013,38.56945754900005,121.45268246499995
50018,PACIFIC ALLIANCE MEDICAL CENTER,OP-26,822,280,3,40,221,2,9,01/01/2013,12/31/2013,34.064686692000066,118.23937062999994
50022,RIVERSIDE COMMUNITY HOSPITAL,OP-26,3015,0,83,106,57,224,560,01/01/2013,12/31/2013,33.97596790600005,117.38013482099996
50024,PARADISE VALLEY HOSPITAL,OP-26,80,573,30,325,2233,23,76,01/01/2013,12/31/2013,32.68634331700002,117.08304200099997
50025,UNIVERSITY OF CALIFORNIA SAN DIEGO MEDICAL CENTER,OP-26,6379,1886,4417,1801,88,803,494,01/01/2013,12/31/2013,32.753805374000024,117.16508726099994
50026,GROSSMONT HOSPITAL,OP-26,2784,853,1661,685,1162,473,746,01/01/2013,12/31/2013,32.779943668000044,117.00963598799996
50028,MAD RIVER COMMUNITY HOSPITAL,OP-26,2417,0,1533,371,25,11,18,01/01/2013,12/31/2013,40.89671767400006,124.09299681799996
50030,OROVILLE HOSPITAL,OP-26,2280,877,708,243,18,108,117,01/01/2013,12/31/2013,39.504563897000025,121.54211631999999
50036,BAKERSFIELD MEMORIAL HOSPITAL,OP-26,1435,0,14,1264,2942,292,844,01/01/2013,12/31/2013,35.39050791000005,119.006579451
50038,SANTA CLARA VALLEY MEDICAL CENTER,OP-26,4100,796,320,6233,9403,1612,1015,01/01/2013,12/31/2013,37.312870032000035,121.931843878
50039,ENLOE MEDICAL CENTER,OP-26,3703,0,194,1486,4047,311,672,01/01/2013,12/31/2013,39.74251154900003,121.84935547999999
50040,LAC/OLIVE VIEW-UCLA MEDICAL CENTER,OP-26,638,1678,0,1139,642,429,56,01/01/2013,12/31/2013,34.32448821600008,118.44598282499999
50042,ST ELIZABETH COMMUNITY HOSPITAL,OP-26,227,360,9,239,307,27,1,01/01/2013,12/31/2013,40.14864193200003,122.21812651799996
50043,ALTA BATES SUMMIT MEDICAL CENTER,OP-26,636,0,43,73,45,180,297,01/01/2013,12/31/2013,37.820784798000034,122.263022665
50045,EL CENTRO REGIONAL MEDICAL CENTER,OP-26,619,882,333,204,1,408,80,01/01/2013,12/31/2013,32.781463028000076,115.56940921799998
50047,CALIFORNIA PACIFIC MEDICAL CTR-PACIFIC CAMPUS HOSP,OP-26,1961,1158,70,442,159,444,603,01/01/2013,12/31/2013,37.79148861700003,122.431015232
50054,SAN GORGONIO MEMORIAL HOSPITAL,OP-26,438,0,517,87,7,40,26,01/01/2013,12/31/2013,33.931814581000026,116.94685308199996
50055,CALIFORNIA PACIFIC MEDICAL CTR - ST. LUKE'S CAMPUS,OP-26,818,150,49,140,21,25,53,01/01/2013,12/31/2013,37.74804308700004,122.42124907699997
50056,ANTELOPE VALLEY HOSPITAL,OP-26,2788,24,355,500,48,219,802,01/01/2013,12/31/2013,34.68939282100007,118.15849081699997
50057,KAWEAH DELTA MEDICAL CENTER,OP-26,531,0,146,564,30,124,87,01/01/2013,12/31/2013,36.32738117400004,119.29608488199995
50058,GLENDALE MEM HOSPITAL & HLTH CENTER,OP-26,1378,438,55,171,4450,58,422,01/01/2013,12/31/2013,34.12838663200006,118.25777212599996
50060,COMMUNITY REGIONAL MEDICAL CENTER,OP-26,3269,398,75,137,102,235,782,01/01/2013,12/31/2013,36.742003477000026,119.78393490999997
50063,HOLLYWOOD PRESBYTERIAN MEDICAL CENTER,OP-26,15,0,1,2,1,7,131,01/01/2013,12/31/2013,34.09569113900005,118.29172570599997
50067,OAK VALLEY DISTRICT HOSPITAL,OP-26,637,25,316,29,5,2,253,01/01/2013,12/31/2013,37.75786398500003,120.86024714099995
50069,ST JOSEPH HOSPITAL,OP-26,6695,2195,1674,1596,3759,604,1675,01/01/2013,12/31/2013,33.782311967000055,117.86485484199994
50077,SCRIPPS MERCY HOSPITAL,OP-26,3038,478,48,481,171,483,663,01/01/2013,12/31/2013,32.75167325000007,117.160812008
50078,PROVIDENCE LITTLE CO OF MARY MED CTR SAN PEDRO,OP-26,767,175,96,158,133,162,115,01/01/2013,12/31/2013,33.73793934300005,118.30389166099997
50079,DOCTORS MEDICAL CENTER - SAN PABLO,OP-26,573,151,8,1075,0,140,231,01/01/2013,12/31/2013,37.95473824700008,122.33656903899998
50082,ST JOHNS REGIONAL MEDICAL CENTER,OP-26,1000,505,68,243,45,141,541,01/01/2013,12/31/2013,34.21611726300006,119.15848015299997
50084,ST JOSEPHS MEDICAL CENTER OF STOCKTON,OP-26,774,3,133,70,392,135,1822,01/01/2013,12/31/2013,37.97081027300004,121.28925663999996
50089,COMMUNITY HOSPITAL OF SAN BERNARDINO,OP-26,459,410,7,5,11,43,92,01/01/2013,12/31/2013,34.13162910200003,117.32252980599998
50090,SONOMA VALLEY HOSPITAL,OP-26,212,171,242,222,23,18,13,01/01/2013,12/31/2013,38.28845288800005,122.465262785
50091,COMMUNITY HOSPITAL OF HUNTINGTON PARK,OP-26,289,0,0,91,239,20,18,01/01/2013,12/31/2013,33.98921799400006,118.22408906799996
50093,SAINT AGNES MEDICAL CENTER,OP-26,4061,2631,139,1366,3726,765,930,01/01/2013,12/31/2013,36.83705864500007,119.76618209999998
50096,DOCTORS HOSPITAL OF WEST COVINA, INC,OP-26,9,0,27,203,11,0,0,01/01/2013,12/31/2013,34.07080530800005,117.94439455099996
50099,SAN ANTONIO COMMUNITY HOSPITAL,OP-26,2607,8,78,237,213,237,1001,01/01/2013,12/31/2013,34.10108198700004,117.63687680699996
50100,SHARP MEMORIAL HOSPITAL,OP-26,4102,2645,1666,932,315,1166,1461,01/01/2013,12/31/2013,32.80026521800005,117.15520980199994
50101,SUTTER SOLANO MEDICAL CENTER,OP-26,942,399,27,264,45,100,163,01/01/2013,12/31/2013,38.13108806500003,122.23851907399995
50102,PARKVIEW COMMUNITY HOSPITAL MEDICAL CENTER,OP-26,1615,0,18,51,20,58,176,01/01/2013,12/31/2013,33.92581023100007,117.44010648099999
50103,WHITE MEMORIAL MEDICAL CENTER,OP-26,2085,198,2312,1966,1351,180,650,01/01/2013,12/31/2013,34.048564302000045,118.21151999699998
50104,SAINT FRANCIS MEDICAL CENTER,OP-26,1095,242,167,640,2158,100,482,01/01/2013,12/31/2013,33.93085492000006,118.20414767899996
50107,MARIAN REGIONAL MEDICAL CENTER,OP-26,911,16,184,445,233,112,514,01/01/2013,12/31/2013,34.95203356700006,120.41321941099994
50108,SUTTER GENERAL HOSPITAL,OP-26,3495,0,82,1026,135,393,1175,01/01/2013,12/31/2013,38.571607707000055,121.46986183499996
50110,LOMPOC VALLEY MEDICAL CENTER,OP-26,1515,388,50,324,105,151,7,01/01/2013,12/31/2013,34.63950601600004,120.43914898199995
50111,TEMPLE COMMUNITY HOSPITAL,OP-26,NA,NA,NA,NA,NA,NA,NA,01/01/2013,12/31/2013,34.07531649200007,118.28370121599994
50112,SANTA MONICA - UCLA MED CTR & ORTHOPAEDIC HOSPITAL,OP-26,2396,434,5348,2264,2039,466,342,01/01/2013,12/31/2013,34.02753937500006,118.48612243499997
50113,SAN MATEO MEDICAL CENTER,OP-26,1383,249,119,400,138,86,33,01/01/2013,12/31/2013,37.530546437000055,122.29841007399995
50115,PALOMAR HEALTH DOWNTOWN CAMPUS,OP-26,1151,215,333,345,318,481,339,01/01/2013,12/31/2013,33.12586453000006,117.07628217199999
50116,NORTHRIDGE HOSPITAL MEDICAL CENTER,OP-26,219,488,41,236,83,98,424,01/01/2013,12/31/2013,34.22075289300005,118.53185893199998
50118,DOCTORS HOSPITAL OF MANTECA,OP-26,1730,75,524,552,867,84,69,01/01/2013,12/31/2013,37.80110796900004,121.19746010899996
50121,ADVENTIST MEDICAL CENTER,OP-26,1810,0,294,523,630,348,241,01/01/2013,12/31/2013,36.325674234000076,119.66841920699994
50122,DAMERON HOSPITAL,OP-26,729,181,1414,292,15,96,309,01/01/2013,12/31/2013,37.96124800000007,121.30067143299999
50124,USC VERDUGO HILLS HOSPITAL,OP-26,570,291,50,805,3982,113,28,01/01/2013,12/31/2013,34.205632699000034,118.21529913599994
50125,REGIONAL MEDICAL CENTER OF SAN JOSE,OP-26,364,797,13,538,1054,111,297,01/01/2013,12/31/2013,37.355040090000045,121.84023171299998
50126,VALLEY PRESBYTERIAN HOSPITAL,OP-26,2464,345,38,2164,2005,135,190,01/01/2013,12/31/2013,34.193960153000035,118.46206159299999
50127,WOODLAND MEMORIAL HOSPITAL,OP-26,2339,330,248,391,67,122,153,01/01/2013,12/31/2013,38.66405066800007,121.79334421299995
50128,TRI-CITY MEDICAL CENTER,OP-26,637,26,81,414,1338,211,1416,01/01/2013,12/31/2013,33.18366814800004,117.29174097899994
50129,ST BERNARDINE MEDICAL CENTER,OP-26,420,169,103,660,2282,259,435,01/01/2013,12/31/2013,34.13432023400003,117.27872595599996
50131,NOVATO COMMUNITY HOSPITAL,OP-26,195,67,0,27,10,34,17,01/01/2013,12/31/2013,38.09826762200004,122.55974182799997
50132,SAN GABRIEL VALLEY MEDICAL CENTER,OP-26,613,1268,88,52,67,75,6,01/01/2013,12/31/2013,34.10243313900003,118.10519893499998
50133,RIDEOUT MEMORIAL HOSPITAL,OP-26,856,624,1889,308,533,207,611,01/01/2013,12/31/2013,39.13880539500008,121.59360080599998
50135,SOUTHERN CALIFORNIA HOSPITAL AT HOLLYWOOD,OP-26,0,433,0,0,0,0,199,01/01/2013,12/31/2013,34.09620851300008,118.32509924399994
50136,PETALUMA VALLEY HOSPITAL,OP-26,378,209,145,130,23,56,45,01/01/2013,12/31/2013,38.25322532800004,122.63301542899995
50145,COMMUNITY HOSPITAL OF THE MONTEREY PENINSULA,OP-26,985,596,214,474,4330,96,422,01/01/2013,12/31/2013,36.595667356000035,121.87999944999996
50149,CALIFORNIA HOSPITAL MEDICAL CENTER LA,OP-26,1121,152,50,184,81,123,359,01/01/2013,12/31/2013,34.037087238000026,118.26548594499997
50150,SIERRA NEVADA MEMORIAL HOSPITAL,OP-26,505,0,26,775,3840,24,77,01/01/2013,12/31/2013,39.22850974200003,121.04687185599994
50152,SAINT FRANCIS MEMORIAL HOSPITAL,OP-26,225,59,130,325,12,79,2,01/01/2013,12/31/2013,37.789607044000036,122.41707551199994
50153,O'CONNOR HOSPITAL,OP-26,2044,383,526,1080,2181,5,434,01/01/2013,12/31/2013,37.327077667000026,121.93774932299999
50158,ENCINO HOSPITAL MEDICAL CENTER,OP-26,95,53,0,39,2,0,8,01/01/2013,12/31/2013,34.15681738400008,118.48673557599994
50159,VENTURA COUNTY MEDICAL CENTER,OP-26,1068,124,89,168,66,105,75,01/01/2013,12/31/2013,34.276187279000055,119.25235314599996
50167,SAN JOAQUIN GENERAL HOSPITAL,OP-26,777,85,86,99,77,95,116,01/01/2013,12/31/2013,37.886270403000026,121.28121387699997
50168,ST JUDE MEDICAL CENTER,OP-26,4898,2243,871,1545,4228,587,1940,01/01/2013,12/31/2013,33.89354749200004,117.92746292199996
50169,PRESBYTERIAN INTERCOMMUNITY HOSPITAL,OP-26,4458,811,2784,2977,5676,574,1107,01/01/2013,12/31/2013,33.96755740100008,118.04751340299998
50174,SANTA ROSA MEMORIAL HOSPITAL,OP-26,1590,9,406,736,1190,193,2014,01/01/2013,12/31/2013,38.44289782800007,122.70149207999998
50179,EMANUEL MEDICAL CENTER,OP-26,1103,34,48,393,31,87,310,01/01/2013,12/31/2013,37.51051747500003,120.83966277799999
50180,JOHN MUIR MEDICAL CENTER - WALNUT CREEK CAMPUS,OP-26,557,300,29,26,8,124,246,01/01/2013,12/31/2013,37.91427702300007,122.04204119799999
50189,GEORGE L MEE MEMORIAL HOSPITAL,OP-26,96,90,0,37,3,0,0,01/01/2013,12/31/2013,36.20660113400004,121.13199436999997
50191,ST MARY MEDICAL CENTER,OP-26,1492,370,91,101,29,63,626,01/01/2013,12/31/2013,33.78024016400008,118.18664682299999
50192,ADVENTIST MEDICAL CENTER - REEDLEY,OP-26,234,0,2,84,0,12,4,01/01/2013,12/31/2013,36.60782796700005,119.45170937299997
50194,WATSONVILLE COMMUNITY HOSPITAL,OP-26,291,0,21,191,861,12,18,01/01/2013,12/31/2013,36.92825056400005,121.79354849899994
50195,WASHINGTON HOSPITAL,OP-26,257,0,12,146,142,128,120,01/01/2013,12/31/2013,37.55801172100007,121.98062906199999
50197,SEQUOIA HOSPITAL,OP-26,328,267,91,233,10,270,414,01/01/2013,12/31/2013,37.48096720800004,122.25321758099994
50204,PALMDALE REGIONAL MEDICAL CENTER,OP-26,127,0,118,384,127,32,153,01/01/2013,12/31/2013,34.58389819700005,118.14452607499999
50205,GLENDORA COMMUNITY HOSPITAL,OP-26,226,137,0,21,0,1,0,01/01/2013,12/31/2013,34.128666734000035,117.86608886599998
50211,ALAMEDA HOSPITAL,OP-26,265,490,36,501,529,161,18,01/01/2013,12/31/2013,37.76348481500003,122.25423043699999
50222,SHARP CHULA VISTA MEDICAL CENTER,OP-26,935,904,71,167,48,131,365,01/01/2013,12/31/2013,32.618714745000034,117.02428484699999
50224,HOAG MEMORIAL HOSPITAL PRESBYTERIAN,OP-26,6145,1170,601,966,3479,780,2411,01/01/2013,12/31/2013,33.625259130000074,117.92949428699995
50225,FEATHER RIVER HOSPITAL,OP-26,2475,58,714,714,1360,160,230,01/01/2013,12/31/2013,39.75743014100004,121.57228355599995
50226,AHMC ANAHEIM REGIONAL MEDICAL CENTER,OP-26,1509,42,191,694,1318,263,678,01/01/2013,12/31/2013,33.847188424000024,117.93230693999999
50228,SAN FRANCISCO GENERAL HOSPITAL,OP-26,3979,304,194,676,2240,516,481,01/01/2013,12/31/2013,37.756173587000035,122.40659550899994
50230,GARDEN GROVE HOSPITAL & MEDICAL CENTER,OP-26,35,93,2,0,161,25,18,01/01/2013,12/31/2013,33.77450756200005,117.91302943999995
50231,POMONA VALLEY HOSPITAL MEDICAL CENTER,OP-26,3481,1056,109,2074,2251,621,712,01/01/2013,12/31/2013,34.07793447600005,117.75232645699998
50232,FRENCH HOSPITAL MEDICAL CENTER,OP-26,330,581,110,198,23,316,428,01/01/2013,12/31/2013,35.27803599500004,120.64970191599997
50234,SHARP CORONADO HOSPITAL AND HLTHCR CTR,OP-26,274,82,110,300,160,28,8,01/01/2013,12/31/2013,32.69424599700005,117.16796968299997
50235,PROVIDENCE SAINT JOSEPH MEDICAL CTR,OP-26,2237,84,1515,435,334,431,443,01/01/2013,12/31/2013,34.15480665300004,118.32652807399995
50236,SIMI VALLEY HOSPITAL & HEALTH CARE SERVICES,OP-26,1085,128,94,325,85,96,62,01/01/2013,12/31/2013,34.28972963500007,118.74394216099995
50238,METHODIST HOSPITAL OF SOUTHERN CA,OP-26,399,21,178,188,66,252,298,01/01/2013,12/31/2013,34.140112755000075,118.02390890999999
50239,GLENDALE ADVENTIST MEDICAL CENTER,OP-26,1202,4,787,1383,850,271,700,01/01/2013,12/31/2013,34.14950615600003,118.23108802799999
50242,DOMINICAN HOSPITAL,OP-26,1504,0,69,247,42,193,377,01/01/2013,12/31/2013,36.98832755400008,121.98397886899994
50243,DESERT REGIONAL MEDICAL CENTER,OP-26,1451,1,85,5031,1958,227,256,01/01/2013,12/31/2013,33.838400437000075,116.54556591
50245,ARROWHEAD REGIONAL MEDICAL CENTER,OP-26,1366,597,1350,647,356,363,1790,01/01/2013,12/31/2013,34.07197091200004,117.35279395499998
50248,NATIVIDAD MEDICAL CENTER,OP-26,814,30,35,53,7,179,35,01/01/2013,12/31/2013,36.697264922000045,121.62887835599997
50254,MARSHALL MEDICAL CENTER,OP-26,731,0,32,112,172,161,192,01/01/2013,12/31/2013,38.725560151000025,120.79091545899996
50257,GOOD SAMARITAN HOSPITAL,OP-26,0,0,0,0,0,0,0,01/01/2013,12/31/2013,35.41224340100007,119.03920976699999
50261,SIERRA VIEW MEDICAL CENTER,OP-26,1622,463,286,454,1405,384,181,01/01/2013,12/31/2013,36.06953260300003,119.02724908199997
50262,RONALD REAGAN UCLA MEDICAL CENTER,OP-26,4979,7177,1256,2644,28991,501,1250,01/01/2013,12/31/2013,34.06618190100005,118.44529921399999
50272,REDLANDS COMMUNITY HOSPITAL,OP-26,1356,0,119,352,24,394,476,01/01/2013,12/31/2013,34.036677025000074,117.20385644499999
50276,CONTRA COSTA REGIONAL MEDICAL CENTER,OP-26,228,499,63,356,19,55,2,01/01/2013,12/31/2013,38.00635701500005,122.13095356699995
50278,PROVIDENCE HOLY CROSS MEDICAL CENTER,OP-26,2133,0,68,202,92,107,423,01/01/2013,12/31/2013,34.279047784000056,118.45934644099998
50279,HI-DESERT MEDICAL CENTER,OP-26,690,424,141,324,86,95,20,01/01/2013,12/31/2013,34.13261946600005,116.27666596899996
50280,MERCY MEDICAL CENTER REDDING,OP-26,311,2,82,301,4022,84,364,01/01/2013,12/31/2013,40.57287463100005,122.39560965399994
50281,ALHAMBRA HOSPITAL MEDICAL CENTER,OP-26,692,759,4,6,9,53,28,01/01/2013,12/31/2013,34.09005071900003,118.14496648499994
50283,VALLEYCARE MEDICAL CENTER,OP-26,3083,538,175,861,778,292,291,01/01/2013,12/31/2013,37.69213285200004,121.88026046299996
50289,SETON MEDICAL CENTER,OP-26,901,1453,48,134,184,131,506,01/01/2013,12/31/2013,37.68016562200006,122.47297385499996
50290,PROVIDENCE SAINT JOHN'S HEALTH CENTER,OP-26,819,201,4,987,1374,336,189,01/01/2013,12/31/2013,34.02980353400005,118.47866736499998
50291,SUTTER SANTA ROSA REGIONAL HOSPITAL,OP-26,1495,0,291,188,26,246,228,01/01/2013,12/31/2013,38.49636484600006,122.75140098199995
50292,RIVERSIDE COUNTY REGIONAL MEDICAL CENTER,OP-26,523,295,323,382,168,225,134,01/01/2013,12/31/2013,33.91013804600004,117.19400904399998
50295,MERCY HOSPITAL,OP-26,1371,7,201,3949,77,606,304,01/01/2013,12/31/2013,35.37327323000005,119.02759937599996
50296,HAZEL HAWKINS MEMORIAL HOSPITAL,OP-26,234,170,49,55,2,25,26,01/01/2013,12/31/2013,36.83506370200007,121.38624074399996
50298,BARSTOW COMMUNITY HOSPITAL,OP-26,339,168,0,140,14,31,19,01/01/2013,12/31/2013,34.89352415400003,117.01687913099994
50300,ST MARY MEDICAL CENTER,OP-26,1128,1066,122,1089,1404,361,561,01/01/2013,12/31/2013,34.540588300000024,117.26566484099999
50301,UKIAH VALLEY MEDICAL CENTER/HOSPITAL D,OP-26,971,571,997,818,1350,108,99,01/01/2013,12/31/2013,39.15235707100004,123.20360807199995
50305,ALTA BATES SUMMIT MEDICAL CENTER - ALTA BATES CAMP,OP-26,612,870,46,58,130,280,92,01/01/2013,12/31/2013,37.85638292800007,122.25792580499996
50308,EL CAMINO HOSPITAL,OP-26,1277,350,10,898,2187,732,237,01/01/2013,12/31/2013,37.36894006500006,122.07795436499998
50309,SUTTER ROSEVILLE MEDICAL CENTER,OP-26,684,444,80,1258,1878,273,547,01/01/2013,12/31/2013,38.76515247900005,121.24922392099995
50313,SUTTER TRACY COMMUNITY HOSPITAL,OP-26,1375,125,0,157,0,48,0,01/01/2013,12/31/2013,37.74386145600005,121.43496497999996
50315,KERN MEDICAL CENTER,OP-26,105,3,1,5,7,39,10,01/01/2013,12/31/2013,35.37991394200003,118.96758163499999
50320,HIGHLAND HOSPITAL,OP-26,3992,833,285,2321,2627,753,270,01/01/2013,12/31/2013,37.79925394800006,122.23138414499999
50324,SCRIPPS MEMORIAL HOSPITAL LA JOLLA,OP-26,614,760,171,346,85,476,1633,01/01/2013,12/31/2013,32.885658111000055,117.22317905799997
50327,LOMA LINDA UNIVERSITY MEDICAL CENTER,OP-26,4203,1425,1184,1082,1414,471,1245,01/01/2013,12/31/2013,34.04915047600008,117.26115250599997
50329,CORONA REGIONAL MEDICAL CENTER,OP-26,567,39,7,61,17,119,90,01/01/2013,12/31/2013,33.87299539400004,117.56679179999998
50334,SALINAS VALLEY MEMORIAL HOSPITAL,OP-26,661,0,91,335,1210,124,794,01/01/2013,12/31/2013,36.659893821000026,121.64602498299996
50335,SONORA REGIONAL MEDICAL CENTER,OP-26,1625,0,1842,2649,4594,209,429,01/01/2013,12/31/2013,37.97570561300006,120.36897806999997
50336,LODI MEMORIAL HOSPITAL,OP-26,177,0,21,119,7,215,71,01/01/2013,12/31/2013,38.12144922700003,121.28585395199997
50342,PIONEERS MEMORIAL HEALTHCARE DISTRICT,OP-26,254,155,168,385,165,128,260,01/01/2013,12/31/2013,32.95996733700002,115.55296270899998
50348,UNIVERSITY OF CALIFORNIA IRVINE MED CENTER,OP-26,4476,3174,792,1481,7245,143,570,01/01/2013,12/31/2013,33.780122808000044,117.89432157599998
50350,BEVERLY HOSPITAL,OP-26,606,226,562,373,2040,108,394,01/01/2013,12/31/2013,34.016153734000056,118.10116479599998
50351,TORRANCE MEMORIAL MEDICAL CENTER,OP-26,2237,1447,232,889,1648,512,1064,01/01/2013,12/31/2013,33.81275617500006,118.34407696799997
50352,BARTON MEMORIAL HOSPITAL,OP-26,613,10,234,2175,1,81,1,01/01/2013,12/31/2013,38.91228328300008,119.99757983699999
50353,PROVIDENCE LITTLE COMPANY OF MARY MED CTR TORRANCE,OP-26,2117,233,196,716,804,425,494,01/01/2013,12/31/2013,33.83760766700004,118.35704971499996
50357,GOLETA VALLEY COTTAGE HOSPITAL,OP-26,20,149,177,638,8644,120,54,01/01/2013,12/31/2013,34.43416470300008,119.80928200899996
50359,TULARE REGIONAL MEDICAL CENTER,OP-26,433,326,0,142,8,66,124,01/01/2013,12/31/2013,36.226425403000064,119.33699735799996
50360,MARIN GENERAL HOSPITAL,OP-26,1158,571,181,161,271,187,330,01/01/2013,12/31/2013,37.948586214000045,122.53687479599995
50367,NORTHBAY MEDICAL CENTER,OP-26,396,0,0,1181,2160,315,176,01/01/2013,12/31/2013,38.26109771700004,122.04752951599994
50373,LAC+USC MEDICAL CENTER,OP-26,5316,1189,1,1100,2078,1317,21,01/01/2013,12/31/2013,34.05982291000004,118.21030777799996
50376,LAC/HARBOR-UCLA MED CENTER,OP-26,239,34,7,30,88,58,13,01/01/2013,12/31/2013,33.83155528900005,118.29357752399994
50378,PACIFICA HOSPITAL OF THE VALLEY,OP-26,120,11,0,238,613,31,24,01/01/2013,12/31/2013,34.24086827700006,118.39541954699996
50380,GOOD SAMARITAN HOSPITAL,OP-26,813,97,126,726,1248,140,391,01/01/2013,12/31/2013,37.251118097000074,121.94790899199995
50382,CITRUS VALLEY MEDICAL CENTER-IC CAMPUS,OP-26,1636,0,347,306,31,401,241,01/01/2013,12/31/2013,34.09004077000003,117.89211648299994
50390,HEMET VALLEY MEDICAL CENTER,OP-26,261,0,0,151,95,442,590,01/01/2013,12/31/2013,33.751172703000066,116.96029978999997
50393,PIH HOSPITAL - DOWNEY,OP-26,1676,121,143,248,15,133,144,01/01/2013,12/31/2013,33.93515177900008,118.13195607099999
50394,COMMUNITY MEMORIAL HOSPITAL SAN BUENAVENTURA,OP-26,1801,683,887,841,67,604,618,01/01/2013,12/31/2013,34.27465318000003,119.25734132399998
50396,SANTA BARBARA COTTAGE HOSPITAL,OP-26,1216,305,83,406,133,383,825,01/01/2013,12/31/2013,34.421200664000025,119.69881972499996
50397,COALINGA REGIONAL MEDICAL CENTER,OP-26,0,0,0,0,0,0,0,01/01/2013,12/31/2013,36.151522976000024,120.34035268799994
50407,CHINESE HOSPITAL,OP-26,1611,1177,41,74,83,80,29,01/01/2013,12/31/2013,37.795691919000035,122.40917637499996
50414,MERCY HOSPITAL OF FOLSOM,OP-26,3045,0,23,239,6,137,19,01/01/2013,12/31/2013,38.670914811000046,121.14624809599997
50417,SUTTER COAST HOSPITAL,OP-26,688,209,43,159,13,45,14,01/01/2013,12/31/2013,41.77271803100007,124.19319002699996
50423,PALO VERDE HOSPITAL,OP-26,201,72,10,0,12,3,5,01/01/2013,12/31/2013,33.613040616000035,114.59549601899994
50424,SCRIPPS GREEN HOSPITAL,OP-26,6218,0,362,694,206,302,1058,01/01/2013,12/31/2013,32.896524129000056,117.24180108499996
50426,WEST ANAHEIM MEDICAL CENTER,OP-26,78,62,16,0,374,9,6,01/01/2013,12/31/2013,33.824767791000056,117.99465938799995
50434,COLUSA REGIONAL MEDICAL CENTER,OP-26,141,0,0,0,0,0,0,01/01/2013,12/31/2013,39.20737383300008,122.00036678299995
50435,FALLBROOK HOSPITAL DISTRICT,OP-26,240,0,13,90,18,55,36,01/01/2013,12/31/2013,33.38019787700006,117.244459399
50438,HUNTINGTON MEMORIAL HOSPITAL,OP-26,1329,12,465,120,159,470,1398,01/01/2013,12/31/2013,34.13575663200004,118.15236641499996
50441,STANFORD HOSPITAL,OP-26,4738,4440,2800,3500,5026,1365,1979,01/01/2013,12/31/2013,37.433039198000074,122.17587757799998
50444,MERCY MEDICAL CENTER,OP-26,1227,304,527,745,1140,123,231,01/01/2013,12/31/2013,37.338748321000025,120.46671867899994
50454,UCSF MEDICAL CENTER,OP-26,823,2606,1107,2573,13701,1812,204,01/01/2013,12/31/2013,37.76355182300006,122.45763194399996
50455,SAN JOAQUIN COMMUNITY HOSPITAL,OP-26,2761,132,378,699,467,447,3188,01/01/2013,12/31/2013,35.383102164000036,119.01889546199999
50457,ST MARY'S MEDICAL CENTER,OP-26,628,682,24,418,81,67,282,01/01/2013,12/31/2013,37.77365715900004,122.45441520399999
50464,DOCTORS MEDICAL CENTER,OP-26,2843,556,1197,1235,2391,406,467,01/01/2013,12/31/2013,37.66490941100005,120.99625441999996
50468,MEMORIAL HOSPITAL OF GARDENA,OP-26,359,246,0,100,60,90,40,01/01/2013,12/31/2013,33.89240788500007,118.29503966899995
50471,GOOD SAMARITAN HOSPITAL,OP-26,1010,1539,187,636,49,257,349,01/01/2013,12/31/2013,34.05325613600007,118.26536141199995
50481,WEST HILLS HOSPITAL & MEDICAL CENTER,OP-26,327,10,19,48,29,143,90,01/01/2013,12/31/2013,34.203370722000045,118.62938575999999
50485,LONG BEACH MEMORIAL MEDICAL CENTER,OP-26,363,201,93,526,32,244,121,01/01/2013,12/31/2013,33.808070075000046,118.18506243499996
50488,EDEN MEDICAL CENTER,OP-26,180,113,12,65,18,148,133,01/01/2013,12/31/2013,37.69708918500004,122.08701129999997
50492,CLOVIS COMMUNITY MEDICAL CENTER,OP-26,2933,0,30,3017,88,764,99,01/01/2013,12/31/2013,36.837445579000075,119.66071551399995
50496,JOHN MUIR MEDICAL CENTER - CONCORD CAMPUS,OP-26,1608,0,29,45,97,449,713,01/01/2013,12/31/2013,37.98353086700007,122.03463409599999
50498,SUTTER AUBURN FAITH HOSPITAL,OP-26,3088,0,50,517,484,109,211,01/01/2013,12/31/2013,38.944329966000055,121.09914292999997
50502,SAINT VINCENT MEDICAL CENTER,OP-26,1805,71,64,819,47,109,670,01/01/2013,12/31/2013,34.06315761400003,118.27338253199997
50503,SCRIPPS MEMORIAL HOSPITAL - ENCINITAS,OP-26,1350,0,64,145,27,262,222,01/01/2013,12/31/2013,33.03624751700005,117.28340998099998
50506,SIERRA VISTA REGIONAL MEDICAL CENTER,OP-26,284,0,249,435,1093,174,222,01/01/2013,12/31/2013,35.29098763400003,120.66643794899994
50516,MERCY SAN JUAN MEDICAL CENTER,OP-26,2172,1195,480,710,1100,232,532,01/01/2013,12/31/2013,38.66806752200006,121.31369999399999
50517,VICTOR VALLEY GLOBAL MEDICAL CENTER,OP-26,697,0,8,291,152,32,233,01/01/2013,12/31/2013,34.528246152000065,117.29255964799995
50523,SUTTER DELTA MEDICAL CENTER,OP-26,1052,63,76,123,97,50,22,01/01/2013,12/31/2013,37.982383792000064,121.80552498499998
50526,HUNTINGTON BEACH HOSPITAL,OP-26,46,0,0,0,3,0,3,01/01/2013,12/31/2013,33.70369062700007,117.98904662399997
50528,MEMORIAL HOSPITAL LOS BANOS,OP-26,222,0,0,0,0,14,0,01/01/2013,12/31/2013,37.063397562000034,120.85995100399998
50534,JOHN F KENNEDY MEMORIAL HOSPITAL,OP-26,555,353,118,2135,1507,124,43,01/01/2013,12/31/2013,33.706773361000046,116.23390938799997
50537,SUTTER DAVIS HOSPITAL,OP-26,2589,216,111,398,11,83,32,01/01/2013,12/31/2013,38.562893160000044,121.77163509899998
50543,COLLEGE HOSPITAL COSTA MESA,OP-26,0,0,0,0,0,0,0,01/01/2013,12/31/2013,33.65259268900007,117.91186909199996
50547,SONOMA DEVELOPMENTAL CENTER,OP-26,NA,NA,NA,NA,NA,NA,NA,01/01/2013,12/31/2013,38.34879886600004,122.50969937299999
50549,LOS ROBLES HOSPITAL & MEDICAL CENTER,OP-26,1544,0,157,372,87,273,484,01/01/2013,12/31/2013,34.20641850700002,118.88280249099995
50551,LOS ALAMITOS MEDICAL CENTER,OP-26,1211,111,185,1477,2847,264,333,01/01/2013,12/31/2013,33.80318785700007,118.06679914399996
50552,MOTION PICTURE & TELEVISION HOSPITAL,OP-26,1591,199,1180,601,117,14,0,01/01/2013,12/31/2013,34.158396854000046,118.636052587
50557,MEMORIAL  MEDICAL CENTER,OP-26,3108,1658,0,708,0,127,3,01/01/2013,12/31/2013,37.668660088000024,120.97566429599999
50567,MISSION HOSPITAL REGIONAL MED CENTER,OP-26,5810,50,117,705,2416,310,645,01/01/2013,12/31/2013,33.560831879000034,117.66685940999997
50568,MADERA COMMUNITY HOSPITAL,OP-26,509,0,184,69,5,53,15,01/01/2013,12/31/2013,36.94538316300003,120.04470009699997
50570,FOUNTAIN VALLEY REGIONAL HOSPITAL & MEDICAL CENTER,OP-26,1766,0,315,1321,2357,375,666,01/01/2013,12/31/2013,33.71503023200006,117.93698653099995
50573,EISENHOWER MEDICAL CENTER,OP-26,1145,124,2548,9979,7292,778,1550,01/01/2013,12/31/2013,33.76418081300005,116.40807679599999
50575,GARDENS REGIONAL HOSPITAL AND MEDICAL CENTER,OP-26,1009,0,221,158,15,108,13,01/01/2013,12/31/2013,33.83370383000005,118.08177291299995
50580,LA PALMA INTERCOMMUNITY HOSPITAL,OP-26,82,167,0,0,6,2,2,01/01/2013,12/31/2013,33.84754955400007,118.03730303399999
50581,LAKEWOOD REGIONAL MEDICAL CENTER,OP-26,867,115,151,881,1550,293,622,01/01/2013,12/31/2013,33.860205765000046,118.14896738899995
50586,CHINO VALLEY MEDICAL CENTER,OP-26,0,103,0,18,0,1,0,01/01/2013,12/31/2013,34.02627307300003,117.68557937999998
50588,SAN DIMAS COMMUNITY HOSPITAL,OP-26,123,0,1,0,4,71,14,01/01/2013,12/31/2013,34.09907551800006,117.83432657599997
50589,PLACENTIA LINDA HOSPITAL,OP-26,1265,198,203,1099,2309,102,52,01/01/2013,12/31/2013,33.886721968000074,117.84207067199998
50590,METHODIST HOSPITAL OF SACRAMENTO,OP-26,1746,564,157,554,240,130,34,01/01/2013,12/31/2013,38.46419544200006,121.41742145499995
50597,FOOTHILL PRESBYTERIAN HOSPITAL,OP-26,591,312,116,40,8,103,17,01/01/2013,12/31/2013,34.13317391000004,117.87251526699998
50599,UNIVERSITY OF CALIFORNIA DAVIS MEDICAL CENTER,OP-26,6203,3202,3679,4115,18102,2150,1673,01/01/2013,12/31/2013,38.55406806800005,121.45719438299994
50603,SADDLEBACK MEMORIAL MEDICAL CENTER,OP-26,118,7,63,201,44,206,94,01/01/2013,12/31/2013,33.60802273400003,117.70825152199996
50608,DELANO REGIONAL MEDICAL CENTER,OP-26,491,0,14,82,6,157,33,01/01/2013,12/31/2013,35.76144755000007,119.23886328199995
50616,ST JOHNS PLEASANT VALLEY HOSPITAL,OP-26,701,0,110,395,28,36,67,01/01/2013,12/31/2013,34.24363951400005,119.01857931399996
50624,HENRY MAYO NEWHALL  HOSPITAL,OP-26,1060,281,117,1414,902,475,646,01/01/2013,12/31/2013,34.395446882000044,118.55476053299998
50625,CEDARS-SINAI MEDICAL CENTER,OP-26,8390,393,5020,4735,666,1840,3067,01/01/2013,12/31/2013,34.076813306000076,118.38055971999995
50633,TWIN CITIES COMMUNITY HOSPITAL,OP-26,278,7,119,997,1487,123,109,01/01/2013,12/31/2013,35.554428064000035,120.71883911599997
50636,POMERADO HOSPITAL,OP-26,778,85,132,315,213,127,109,01/01/2013,12/31/2013,32.99582303400007,117.05791226799994
50641,EAST LOS ANGELES DOCTORS HOSPITAL,OP-26,833,205,0,38,75,28,6,01/01/2013,12/31/2013,34.02390364100006,118.18415547899997
50663,LOS ANGELES COMMUNITY HOSPITAL,OP-26,262,0,0,49,0,1,4,01/01/2013,12/31/2013,34.018918058000054,118.18683925399995
50668,LAGUNA HONDA HOSPITAL & REHABILITATION CENTER,OP-26,7,0,0,14,548,2,0,01/01/2013,12/31/2013,37.747610173000055,122.45876376199999
50678,ORANGE COAST MEMORIAL MEDICAL CENTER,OP-26,334,0,112,351,41,332,61,01/01/2013,12/31/2013,33.70166035600005,117.95655206999999
50684,MENIFEE VALLEY MEDICAL CENTER,OP-26,127,343,1,122,45,57,100,01/01/2013,12/31/2013,33.71782630000007,117.16778918299997
50688,SAINT LOUISE REGIONAL HOSPITAL,OP-26,515,148,14,95,1860,28,83,01/01/2013,12/31/2013,37.03641289900003,121.57368753599997
50689,SAN RAMON REGIONAL MEDICAL CTR,OP-26,1592,688,209,634,1013,284,140,01/01/2013,12/31/2013,37.77573933300005,121.95902390199996
50696,KECK HOSPITAL OF USC,OP-26,1680,762,484,3103,433,378,573,01/01/2013,12/31/2013,34.06202031200007,118.20320856899997
50697,PATIENTS' HOSPITAL OF REDDING,OP-26,22,80,17,318,203,97,12,01/01/2013,12/31/2013,40.58549787900006,122.41668143199996
50701,SOUTHWEST HEALTHCARE SYSTEM,OP-26,462,0,23,153,16,204,175,01/01/2013,12/31/2013,33.55784746900002,117.18445777999995
50704,MISSION COMMUNITY HOSPITAL,OP-26,85,0,88,207,6,21,15,01/01/2013,12/31/2013,34.22145348000004,118.45651928999996
50708,FRESNO SURGICAL HOSPITAL,OP-26,9,0,2619,2354,16,515,0,01/01/2013,12/31/2013,36.82501119600005,119.78144403199997
50709,DESERT VALLEY HOSPITAL,OP-26,1287,0,1,0,1011,158,350,01/01/2013,12/31/2013,34.47092825500005,117.29778008799997
50714,SUTTER MATERNITY & SURGERY CENTER OF SANTA CRUZ,OP-26,2788,510,0,652,0,67,0,01/01/2013,12/31/2013,36.98767075400008,121.97817712999995
50717,LAC/RANCHO LOS AMIGOS NATIONAL REHABILITATION  CTR,OP-26,83,0,0,0,0,0,0,01/01/2013,12/31/2013,33.927200398000025,118.15750585999996
50724,BAKERSFIELD HEART HOSPITAL,OP-26,NA,NA,NA,NA,NA,NA,NA,01/01/2013,12/31/2013,35.38601848400003,119.04003609199998
50726,STANISLAUS SURGICAL HOSPITAL,OP-26,940,1180,1560,494,11,137,0,01/01/2013,12/31/2013,37.66472043700003,120.95761380199997
50727,COMMUNITY HOSPITAL OF LONG BEACH,OP-26,188,27,0,88,4,6,2,01/01/2013,12/31/2013,33.78886038500008,118.14588600599996
50732,FRESNO HEART AND SURGICAL HOSPITAL,OP-26,1619,0,0,2,41,0,861,01/01/2013,12/31/2013,36.86091933600005,119.78885538799994
50735,WHITTIER HOSPITAL MEDICAL CENTER,OP-26,1628,198,63,76,64,89,181,01/01/2013,12/31/2013,33.95062346700007,118.00516358899995
50736,MONTEREY PARK HOSPITAL,OP-26,1192,133,62,143,512,549,46,01/01/2013,12/31/2013,34.049987859000055,118.13857745599995
50737,GARFIELD MEDICAL CENTER,OP-26,2126,175,56,273,883,1132,1144,01/01/2013,12/31/2013,34.067632666000065,118.12292618499998
50738,GREATER EL MONTE COMMUNITY HOSPITAL,OP-26,162,177,0,0,0,0,15,01/01/2013,12/31/2013,34.048023544000046,118.04247101799996
50739,CENTINELA HOSPITAL MEDICAL CENTER,OP-26,157,40,0,139,390,49,441,01/01/2013,12/31/2013,33.949087476000045,118.34777960699995
50740,MARINA DEL REY HOSPITAL,OP-26,66,0,944,258,59,81,10,01/01/2013,12/31/2013,33.98165738500006,118.44010209799995
50742,OLYMPIA MEDICAL CENTER,OP-26,933,863,156,223,293,85,32,01/01/2013,12/31/2013,34.05754369700003,118.36008367299996
50744,WESTERN MEDICAL CENTER HOSP ANAHEIM,OP-26,125,0,7,64,16,49,81,01/01/2013,12/31/2013,33.820059567000044,117.908790195
50745,CHAPMAN MEDICAL CENTER,OP-26,237,0,175,154,58,2,0,01/01/2013,12/31/2013,33.78784752900003,117.82585932099994
50746,WESTERN MEDICAL CENTER SANTA ANA,OP-26,550,39,116,58,230,35,282,01/01/2013,12/31/2013,33.75367965600003,117.83418313099997
50747,COASTAL COMMUNITIES HOSPITAL,OP-26,289,182,205,26,15,57,50,01/01/2013,12/31/2013,33.71111938700005,117.88538619899998
50751,MIRACLE MILE MEDICAL CENTER,OP-26,0,0,0,0,0,0,0,01/01/2013,12/31/2013,34.057461286000034,118.36214968599995
50754,MENLO PARK SURGICAL HOSPITAL,OP-26,2,0,0,583,0,0,0,01/01/2013,12/31/2013,37.46208246100008,122.15946447599998
50755,SHERMAN OAKS HOSPITAL,OP-26,24,0,35,280,7,2,7,01/01/2013,12/31/2013,34.16019126500004,118.44873216899998
50757,ALVARADO HOSPITAL MEDICAL CENTER,OP-26,693,0,413,158,101,59,300,01/01/2013,12/31/2013,32.777044027000045,117.05637474299999
50758,MONTCLAIR HOSPITAL MEDICAL CENTER,OP-26,157,0,41,0,7,5,1,01/01/2013,12/31/2013,34.077687887000025,117.69553970399994
50761,PROVIDENCE TARZANA MEDICAL CENTER,OP-26,914,0,181,608,1838,431,399,01/01/2013,12/31/2013,34.16979783900007,118.53259984899995
50763,SILVER LAKE MEDICAL CENTER,OP-26,25,4,0,198,0,0,53,01/01/2013,12/31/2013,34.06877794800005,118.26336828799998
50764,SHASTA REGIONAL MEDICAL CENTER,OP-26,898,0,23,266,1595,22,548,01/01/2013,12/31/2013,40.58534347300008,122.38689955599995
50766,SUTTER SURGICAL HOSPITAL - NORTH VALLEY,OP-26,50,0,100,82,5,0,67,01/01/2013,12/31/2013,39.13216054600008,121.61353639799995
50769,HOAG ORTHOPEDIC INSTITUTE,OP-26,0,0,0,748,0,0,0,01/01/2013,12/31/2013,33.66200076600006,117.77337908599998
50770,LOMA LINDA UNIVERSITY MEDICAL CENTER-MURRIETA,OP-26,369,0,34,118,30,34,1418,01/01/2013,12/31/2013,33.61349807200003,117.16895728499998
50771,COAST PLAZA HOSPITAL,OP-26,61,5,0,27,0,0,20,01/01/2013,12/31/2013,33.90621323200003,118.08194758799999
50773,SAN LEANDRO HOSPITAL,OP-26,165,0,2,0,9,13,451,01/01/2013,12/31/2013,37.714586584000074,122.14186682799999
50775,TEMECULA VALLEY HOSPITAL,OP-26,0,0,0,0,0,0,0,01/01/2013,12/31/2013,33.47956074600006,117.10482373699995
50776,COLLEGE MEDICAL CENTER,OP-26,NA,NA,NA,NA,NA,NA,NA,01/01/2013,12/31/2013,33.80730035000005,118.19363656399997
51300,EASTERN PLUMAS HOSPITAL - PORTOLA CAMPUS,OP-26,NA,NA,NA,NA,NA,NA,NA,01/01/2013,12/31/2013,39.80520473400003,120.47088071799999
51302,SOUTHERN INYO HOSPITAL,OP-26,NA,NA,NA,NA,NA,NA,NA,01/01/2013,12/31/2013,36.60839834700005,118.05815933499997
51303,MAMMOTH HOSPITAL,OP-26,NA,NA,NA,NA,NA,NA,NA,01/01/2013,12/31/2013,37.64384243200004,118.963924067
51311,BIGGS GRIDLEY MEMORIAL HOSPITAL,OP-26,NA,NA,NA,NA,NA,NA,NA,01/01/2013,12/31/2013,39.36700825500003,121.68954897199995
51314,KERN VALLEY HEALTHCARE DISTRICT,OP-26,534,0,0,4,1,34,0,01/01/2013,12/31/2013,35.63532324400006,118.40634892699995
51315,TRINITY HOSPITAL,OP-26,NA,NA,NA,NA,NA,NA,NA,01/01/2013,12/31/2013,40.73783760100008,122.94037277599995
51319,MERCY MEDICAL CENTER OF MT SHASTA,OP-26,291,68,183,346,505,18,3,01/01/2013,12/31/2013,41.31892133900004,122.32312253299995
51320,BANNER LASSEN MEDICAL CENTER,OP-26,239,21,5,92,13,44,19,01/01/2013,12/31/2013,40.43813632400003,120.62492834999995
51321,HEALDSBURG DISTRICT HOSPITAL,OP-26,NA,NA,NA,NA,NA,NA,NA,01/01/2013,12/31/2013,38.62754088100007,122.86377545799996
51327,SENECA DISTRICT HOSPITAL,OP-26,NA,NA,NA,NA,NA,NA,NA,01/01/2013,12/31/2013,40.305421470000056,121.23391880899999
51329,SUTTER LAKESIDE HOSPITAL,OP-26,878,330,636,356,24,26,62,01/01/2013,12/31/2013,39.10477771700005,122.90855147099995
51331,SANTA YNEZ VALLEY COTTAGE HOSPITAL,OP-26,284,123,51,8,3,0,11,01/01/2013,12/31/2013,34.60242518100006,120.12720995499996
51332,MARK TWAIN MEDICAL CENTER,OP-26,154,0,420,303,263,0,22,01/01/2013,12/31/2013,38.19056539500008,120.67095028399996
51334,OJAI VALLEY COMMUNITY HOSPITAL,OP-26,223,0,179,80,2,1,5,01/01/2013,12/31/2013,34.44225717900002,119.26438406999995
60001,NORTH COLORADO MEDICAL CENTER,OP-26,3533,114,367,867,461,338,602,01/01/2013,12/31/2013,40.41386780700003,104.70932019199995
60003,LONGMONT UNITED HOSPITAL,OP-26,109,0,97,50,628,0,1765,01/01/2013,12/31/2013,40.18135807800007,105.12682070099999
60004,PLATTE VALLEY MEDICAL CENTER,OP-26,2124,23,569,972,325,325,123,01/01/2013,12/31/2013,39.96416908800006,104.77111821799997
60006,MONTROSE MEMORIAL HOSPITAL,OP-26,530,0,45,37,67,207,94,01/01/2013,12/31/2013,38.48050600200003,107.86925372499996
60008,SAN LUIS VALLEY HEALTH,OP-26,662,202,817,944,1227,83,126,01/01/2013,12/31/2013,37.47194814000005,105.88350733099998
60009,EXEMPLA LUTHERAN MEDICAL CENTER,OP-26,10452,0,421,10506,33710,2328,1985,01/01/2013,12/31/2013,39.76933321200005,105.08966076499996
60010,POUDRE VALLEY HOSPITAL,OP-26,922,0,128,1159,2787,136,453,01/01/2013,12/31/2013,40.57175000400008,105.05786469999998
60011,DENVER HEALTH MEDICAL CENTER,OP-26,2434,1386,477,2376,3203,673,404,01/01/2013,12/31/2013,39.72800316800004,104.99030296099994
60012,ST MARY CORWIN MED CTR, CENTURA HEALTH,OP-26,1485,0,3136,512,344,519,719,01/01/2013,12/31/2013,38.23316401900007,104.62429152299995
60013,MERCY REGIONAL MEDICAL CENTER,OP-26,428,0,16,41,112,96,274,01/01/2013,12/31/2013,37.23501841600006,107.82491737799995
60014,PRESBYTERIAN ST LUKES MEDICAL CENTER,OP-26,1181,276,959,1564,3072,243,640,01/01/2013,12/31/2013,39.746088231000044,104.96681023899998
60015,CENTURA HEALTH-ST ANTHONY  HOSPITAL,OP-26,0,464,1705,651,77,472,188,01/01/2013,12/31/2013,39.71791527500005,105.12914955199994
60016,CENTURA HEALTH-ST THOMAS MORE HOSPITAL,OP-26,665,0,61,111,179,96,13,01/01/2013,12/31/2013,38.455722725000044,105.22958004099996
60020,PARKVIEW MEDICAL CENTER INC,OP-26,4000,0,1404,859,1049,549,520,01/01/2013,12/31/2013,38.281690695000066,104.61188574499994
60022,UCH-MEMORIAL HEALTH SYSTEM,OP-26,2643,23,504,2242,4008,880,467,01/01/2013,12/31/2013,38.83884360400003,104.80032864499998
60023,ST MARYS HOSPITAL AND MEDICAL CENTER,OP-26,851,0,195,407,868,324,629,01/01/2013,12/31/2013,39.09118958100004,108.561634417
60024,UNIVERSITY OF COLORADO HOSPITAL ANSCHUTZ INPATIENT,OP-26,6562,4597,2804,7779,11024,5918,1241,01/01/2013,12/31/2013,39.74139999600004,104.84208914199996
60027,FOOTHILLS HOSPITAL - BOULDER COMMUNITY HEALTH,OP-26,282,883,67,884,0,265,3,01/01/2013,12/31/2013,40.01483711700007,105.23592388999998
60028,SAINT JOSEPH HOSPITAL,OP-26,12001,2,1855,7071,16805,3097,1728,01/01/2013,12/31/2013,39.746076446000075,104.96786461899995
60030,MCKEE MEDICAL CENTER,OP-26,593,177,33,349,337,117,127,01/01/2013,12/31/2013,40.413394407000055,105.05361842999997
60031,CENTURA HEALTH-PENROSE ST FRANCIS HEALTH SERVICES,OP-26,3139,0,685,1195,823,962,1209,01/01/2013,12/31/2013,38.86553175200004,104.82016624599999
60032,ROSE MEDICAL CENTER,OP-26,417,514,41,150,234,514,388,01/01/2013,12/31/2013,39.73105786700006,104.93452099799998
60034,HCA-HEALTHONE DBA SWEDISH MEDICAL CENTER,OP-26,1004,0,867,587,716,341,429,01/01/2013,12/31/2013,39.653198185000065,104.98121145699997
60036,ARKANSAS VALLEY REGIONAL MEDICAL CENTER,OP-26,1069,136,0,269,45,16,12,01/01/2013,12/31/2013,37.977581833000045,103.54878314299998
60043,KEEFE MEMORIAL HOSPITAL,OP-26,0,0,0,0,0,0,0,01/01/2013,12/31/2013,38.82574035700003,102.35566020999994
60044,COLORADO PLAINS MEDICAL CENTER,OP-26,309,0,116,210,457,173,21,01/01/2013,12/31/2013,40.259449507000056,103.79614690899996
60049,YAMPA VALLEY MEDICAL CENTER,OP-26,915,246,561,542,33,78,20,01/01/2013,12/31/2013,40.46218644000004,106.81497232599997
60054,COMMUNITY HOSPITAL,OP-26,966,167,513,640,118,121,48,01/01/2013,12/31/2013,39.08593100000007,108.55238630399998
60064,CENTURA HEALTH-PORTER ADVENTIST HOSPITAL,OP-26,591,3,824,2118,2991,64,648,01/01/2013,12/31/2013,39.67121065400005,104.97351651899999
60065,NORTH SUBURBAN MEDICAL CENTER,OP-26,1292,0,179,266,50,67,117,01/01/2013,12/31/2013,39.86331240100003,104.98312397999996
60071,DELTA COUNTY MEMORIAL HOSPITAL,OP-26,665,359,45,164,41,97,62,01/01/2013,12/31/2013,38.743207820000066,108.04691138299995
60075,VALLEY VIEW HOSPITAL ASSOCIATION,OP-26,1566,99,382,423,344,205,115,01/01/2013,12/31/2013,39.53285041500004,107.32276448599998
60076,STERLING REGIONAL MEDCENTER,OP-26,658,149,149,159,28,81,84,01/01/2013,12/31/2013,40.613643514000046,103.22061011299996
60096,VAIL VALLEY MEDICAL CENTER,OP-26,84,0,33,481,22,90,20,01/01/2013,12/31/2013,39.64283801900007,106.38126958299995
60100,MEDICAL CENTER OF AURORA, THE,OP-26,1238,112,1172,571,172,193,299,01/01/2013,12/31/2013,39.69122002800003,104.83118666899998
60103,CENTURA HEALTH-AVISTA ADVENTIST HOSPITAL,OP-26,1931,611,1426,121,43,278,92,01/01/2013,12/31/2013,39.95139719600007,105.15123179099999
60104,ST ANTHONY NORTH HOSP, CENTURA HEALTH,OP-26,416,0,115,1309,3233,33,171,01/01/2013,12/31/2013,39.95829536000008,104.99366058199996
60107,NATIONAL JEWISH HEALTH,OP-26,1868,0,0,350,39,0,249,01/01/2013,12/31/2013,39.73937273300004,104.94278861999999
60112,SKY RIDGE MEDICAL CENTER,OP-26,1811,4,546,298,178,431,456,01/01/2013,12/31/2013,39.528235479000045,104.87312604799996
60113,LITTLETON ADVENTIST HOSPITAL, CENTURA HEALTH ,OP-26,420,0,279,550,145,269,396,01/01/2013,12/31/2013,39.57701046400007,104.98842474099996
60114,PARKER ADVENTIST HOSPITAL,OP-26,888,0,198,179,107,393,134,01/01/2013,12/31/2013,39.54955851700004,104.76922405699997
60116,GOOD SAMARITAN MEDICAL CENTER LLC,OP-26,12345,261,981,5450,12691,3514,730,01/01/2013,12/31/2013,39.97239266500003,105.08768919199997
60117,ANIMAS SURGICAL HOSPITAL, LLC,OP-26,0,9,3,37,15,8,0,01/01/2013,12/31/2013,37.24839756000006,107.87061111299994
60118,ST ANTHONY SUMMIT MEDICAL CENTER,OP-26,27,0,18,115,22,24,6,01/01/2013,12/31/2013,39.56982601300007,106.07851635199995
60119,MEDICAL CENTER OF THE ROCKIES,OP-26,1434,0,242,409,694,174,545,01/01/2013,12/31/2013,40.415592805000074,105.00110459199999
60124,ORTHOCOLORADO HOSPITAL AT ST ANTHONY MED CAMPUS,OP-26,0,0,0,0,0,1,2,01/01/2013,12/31/2013,39.71791527500005,105.12933939099997
60125,CASTLE ROCK ADVENTIST HOSPITAL,OP-26,29,0,8,42,12,0,0,01/01/2013,12/31/2013,39.40667985700003,104.87706885499995
61301,RIO GRANDE HOSPITAL,OP-26,NA,NA,NA,NA,NA,NA,NA,01/01/2013,12/31/2013,37.67477822600006,106.36419291599998
61303,EAST MORGAN COUNTY HOSPITAL,OP-26,154,40,39,27,14,7,7,01/01/2013,12/31/2013,40.25470568700007,103.64928460299996
61305,MELISSA MEMORIAL HOSPITAL,OP-26,NA,NA,NA,NA,NA,NA,NA,01/01/2013,12/31/2013,40.578460482000025,102.29045661899994
61310,SEDGWICK COUNTY MEMORIAL HOSPITAL,OP-26,NA,NA,NA,NA,NA,NA,NA,01/01/2013,12/31/2013,40.99338000600005,102.26883071099996
61312,ESTES PARK MEDICAL CENTER,OP-26,NA,NA,NA,NA,NA,NA,NA,01/01/2013,12/31/2013,40.372215124000036,105.51423628399999
61313,KIT CARSON COUNTY MEMORIAL HOSPITAL,OP-26,NA,NA,NA,NA,NA,NA,NA,01/01/2013,12/31/2013,39.302859574000024,102.27084528299997
61314,MEMORIAL HOSPITAL, THE,OP-26,NA,NA,NA,NA,NA,NA,NA,01/01/2013,12/31/2013,40.52381737400003,107.56204621199998
61315,YUMA DISTRICT HOSPITAL,OP-26,NA,NA,NA,NA,NA,NA,NA,01/01/2013,12/31/2013,40.11847923000005,102.73621654799996
61316,SPANISH PEAKS REGIONAL HEALTH CENTER,OP-26,NA,NA,NA,NA,NA,NA,NA,01/01/2013,12/31/2013,37.599447816000065,104.83900960299997
61320,GUNNISON VALLEY HOSPITAL,OP-26,NA,NA,NA,NA,NA,NA,NA,01/01/2013,12/31/2013,38.55141166400006,106.92433539299998
61324,ASPEN VALLEY HOSPITAL,OP-26,NA,NA,NA,NA,NA,NA,NA,01/01/2013,12/31/2013,39.18997885500005,106.83776121699998
61325,PIONEERS MEDICAL CENTER,OP-26,NA,NA,NA,NA,NA,NA,NA,01/01/2013,12/31/2013,40.04113805600008,107.91120484899994
61327,SOUTHWEST MEMORIAL HOSPITAL,OP-26,NA,NA,NA,NA,NA,NA,NA,01/01/2013,12/31/2013,37.362210739000034,108.57274481899998
70002,ST FRANCIS HOSPITAL & MEDICAL CENTER,OP-26,5138,0,420,1027,1770,897,784,01/01/2013,12/31/2013,41.77487625500004,72.69947870499993
70003,DAY KIMBALL HOSPITAL,OP-26,2397,760,249,651,466,183,312,01/01/2013,12/31/2013,41.907582726000044,71.91479855199998
70004,SHARON HOSPITAL,OP-26,434,301,58,157,14,103,31,01/01/2013,12/31/2013,41.87964403700005,73.48078438899995
70005,WATERBURY HOSPITAL,OP-26,1526,0,409,845,1642,901,406,01/01/2013,12/31/2013,41.55812114500003,73.05999146399995
70006,STAMFORD HOSPITAL,OP-26,5219,194,1890,1857,4496,456,375,01/01/2013,12/31/2013,41.05476083100007,73.55382209699997
70007,LAWRENCE & MEMORIAL HOSPITAL,OP-26,3083,576,2950,1003,39,416,255,01/01/2013,12/31/2013,41.336250937000045,72.10292546099998
70008,JOHNSON MEMORIAL HOSPITAL,OP-26,1450,332,285,446,299,11,44,01/01/2013,12/31/2013,41.97745196100004,72.39029518899997
70010,BRIDGEPORT HOSPITAL,OP-26,4300,403,283,1123,1061,1251,242,01/01/2013,12/31/2013,41.18880621300008,73.16557905799993
70011,CHARLOTTE HUNGERFORD HOSPITAL,OP-26,791,323,928,388,196,337,496,01/01/2013,12/31/2013,41.79083588300006,73.13293155399998
70012,ROCKVILLE GENERAL HOSPITAL,OP-26,1710,270,486,307,10,159,165,01/01/2013,12/31/2013,41.86688365700007,72.45075279799994
70016,SAINT MARYS HOSPITAL,OP-26,2185,1269,390,909,95,510,373,01/01/2013,12/31/2013,41.55262454100006,73.03593669699995
70017,MIDSTATE MEDICAL CENTER,OP-26,10101,632,1006,1424,3837,650,359,01/01/2013,12/31/2013,41.55009157400008,72.80377564999998
70018,GREENWICH HOSPITAL ASSOCIATION,OP-26,521,696,1439,575,14,546,46,01/01/2013,12/31/2013,41.03444300600006,73.62967548399996
70019,MILFORD HOSPITAL, INC,OP-26,1987,0,504,818,1449,105,170,01/01/2013,12/31/2013,41.21662106500003,73.06403647299999
70020,MIDDLESEX HOSPITAL,OP-26,2353,234,99,287,43,604,288,01/01/2013,12/31/2013,41.554804682000054,72.64763376799993
70021,WINDHAM COMMUNITY MEMORIAL HOSPITAL,OP-26,1996,325,1013,637,468,208,82,01/01/2013,12/31/2013,41.71674302000008,72.22400986499997
70022,YALE-NEW HAVEN HOSPITAL,OP-26,3495,1306,639,1712,265,2057,249,01/01/2013,12/31/2013,41.30447353400007,72.93451961699998
70024,WILLIAM W BACKUS HOSPITAL,OP-26,2057,7,1056,1655,976,592,568,01/01/2013,12/31/2013,41.54356280500008,72.08689717099998
70025,HARTFORD HOSPITAL,OP-26,6756,8675,892,2634,3698,1410,1645,01/01/2013,12/31/2013,41.75337705700008,72.68080247799998
70027,MANCHESTER MEMORIAL HOSPITAL,OP-26,3710,1068,136,729,1201,374,136,01/01/2013,12/31/2013,41.78121841400008,72.52417285399997
70028,ST. VINCENT'S MEDICAL CENTER,OP-26,2743,197,555,822,3232,550,828,01/01/2013,12/31/2013,41.20056596200004,73.20287643199998
70029,BRISTOL HOSPITAL,OP-26,1133,813,540,294,197,315,123,01/01/2013,12/31/2013,41.67751919300008,72.92876401899997
70031,GRIFFIN HOSPITAL,OP-26,2531,438,113,862,1610,686,73,01/01/2013,12/31/2013,41.33523876300006,73.08829562199998
70033,DANBURY HOSPITAL,OP-26,10321,277,818,1526,1948,770,1060,01/01/2013,12/31/2013,41.40366262900005,73.44757086399994
70034,NORWALK HOSPITAL ASSOCIATION,OP-26,906,84,106,725,0,1279,93,01/01/2013,12/31/2013,41.110432855000056,73.42136788699997
70035,THE HOSPITAL OF CENTRAL CONNECTICUT,OP-26,3102,498,209,1111,6786,918,426,01/01/2013,12/31/2013,41.662079016000064,72.78604109599996
70036,JOHN DEMPSEY HOSPITAL,OP-26,1983,267,1201,1507,296,613,432,01/01/2013,12/31/2013,41.73579332200006,72.79516590999998
70039,MASONICARE HEALTH CENTER HOSPITAL,OP-26,793,0,0,0,0,3,0,01/01/2013,12/31/2013,41.45945670800006,72.83742714999994
70040,HEBREW HOME AND HOSPITAL INC,OP-26,0,0,0,0,0,0,0,01/01/2013,12/31/2013,41.80262781000005,72.72831570999995
80001,CHRISTIANA HOSPITAL,OP-26,2412,1182,376,1383,2251,3489,2472,01/01/2013,12/31/2013,39.69081541800006,75.67167612399999
80003,ST FRANCIS HOSPITAL,OP-26,1604,36,216,778,629,537,93,01/01/2013,12/31/2013,39.74329796600006,75.58319678199996
80004,BAYHEALTH - KENT GENERAL HOSPITAL,OP-26,798,0,227,421,61,549,568,01/01/2013,12/31/2013,39.151232537000055,75.52229680399995
80006,NANTICOKE MEMORIAL HOSPITAL,OP-26,1415,173,55,395,1054,373,468,01/01/2013,12/31/2013,38.64231617100006,75.60520875299994
80007,BEEBE MEDICAL CENTER,OP-26,3634,55,905,581,926,530,166,01/01/2013,12/31/2013,38.77119560300008,75.14251918299993
80009,BAYHEALTH - MILFORD MEMORIAL HOSPITAL,OP-26,1015,184,71,206,50,235,77,01/01/2013,12/31/2013,38.90620614800008,75.43330764099994
90001,GEORGE WASHINGTON UNIV HOSPITAL,OP-26,4041,542,1018,783,88,712,841,01/01/2013,12/31/2013,38.901040469000066,77.05015606799998
90003,HOWARD UNIVERSITY HOSPITAL,OP-26,3854,222,338,844,1393,759,2686,01/01/2013,12/31/2013,38.91688774700003,77.02185490999994
90004,MEDSTAR GEORGETOWN UNIVERSITY HOSPITAL,OP-26,6155,244,221,613,354,638,485,01/01/2013,12/31/2013,38.91256328700007,77.07417077299993
90005,SIBLEY MEMORIAL HOSPITAL,OP-26,3365,0,312,271,23,504,48,01/01/2013,12/31/2013,38.935767938000026,77.11010007199997
90006,PROVIDENCE HOSPITAL,OP-26,1944,1459,55,394,84,243,419,01/01/2013,12/31/2013,38.94289825800007,76.99034111899994
90008,UNITED MEDICAL CENTER,OP-26,368,0,79,431,1958,14,131,01/01/2013,12/31/2013,38.834824594000054,76.98391829999997
90011,MEDSTAR WASHINGTON HOSPITAL CENTER,OP-26,3856,1010,580,1001,2911,837,2156,01/01/2013,12/31/2013,38.93085460900005,77.01584802899998
100001,SHANDS JACKSONVILLE,OP-26,2725,1234,2093,1799,4203,318,679,01/01/2013,12/31/2013,30.346841313000027,81.66455759399997
100002,BETHESDA  HOSPITAL INC,OP-26,1812,69,71,255,671,556,729,01/01/2013,12/31/2013,26.504047177000075,80.06872536299994
100006,ORLANDO HEALTH,OP-26,3563,166,125,998,222,1389,769,01/01/2013,12/31/2013,28.525991798000064,81.37816228599996
100007,FLORIDA HOSPITAL,OP-26,21590,1741,7616,3138,18497,3444,3771,01/01/2013,12/31/2013,28.57317153500003,81.36984296899999
100008,BAPTIST HOSPITAL OF MIAMI INC,OP-26,3104,9,712,616,1122,487,390,01/01/2013,12/31/2013,25.687762673000066,80.33870960099995
100009,UNIVERSITY OF MIAMI HOSPITAL,OP-26,1693,0,335,1866,1491,0,4019,01/01/2013,12/31/2013,25.787709293000034,80.21509050399999
100012,LEE MEMORIAL HOSPITAL,OP-26,2715,0,40,756,242,673,806,01/01/2013,12/31/2013,26.62673493400007,81.87233125099993
100014,BERT FISH MEDICAL CENTER,OP-26,1117,557,60,283,197,244,278,01/01/2013,12/31/2013,29.02109033200003,80.92284346999998
100017,HALIFAX HEALTH MEDICAL CENTER,OP-26,2260,994,2418,2311,4246,481,1051,01/01/2013,12/31/2013,29.199394509000058,81.05473406399994
100018,NAPLES COMMUNITY HOSPITAL,OP-26,2780,0,47,457,517,295,715,01/01/2013,12/31/2013,26.150255177000076,81.79939042599995
100019,HOLMES REGIONAL MEDICAL CENTER,OP-26,962,3,1386,442,1676,129,848,01/01/2013,12/31/2013,28.08879994600005,80.61356222999996
100022,JACKSON HEALTH SYSTEM,OP-26,3798,5,137,239,3437,448,555,01/01/2013,12/31/2013,25.790629210000077,80.21491268299997
100023,CITRUS MEMORIAL HOSPITAL,OP-26,1301,457,31,157,80,265,493,01/01/2013,12/31/2013,28.832277523000073,82.33562089999998
100025,SACRED HEART HOSPITAL,OP-26,2877,203,1559,551,230,707,1592,01/01/2013,12/31/2013,30.474696235000067,87.21147720299996
100026,BAY MEDICAL CENTER SACRED HEART HEALTH SYSTEM,OP-26,1243,0,110,230,450,479,179,01/01/2013,12/31/2013,30.159150774000068,85.64709216699998
100028,PARRISH MEDICAL CENTER,OP-26,1120,134,154,880,2513,274,406,01/01/2013,12/31/2013,28.627996394000036,80.82426502599998
100029,NORTH SHORE MEDICAL CENTER,OP-26,1181,227,740,797,4061,155,268,01/01/2013,12/31/2013,25.861666403000072,80.21422995199998
100030,HEALTH CENTRAL,OP-26,995,58,488,824,886,294,799,01/01/2013,12/31/2013,28.551702662000025,81.52748072499998
100032,BAYFRONT HEALTH - ST PETERSBURG,OP-26,51,0,17,253,2658,0,331,01/01/2013,12/31/2013,27.76303950600004,82.64169114799995
100034,MOUNT SINAI MEDICAL CENTER,OP-26,4359,707,832,821,4235,707,3539,01/01/2013,12/31/2013,25.815225783000074,80.13785535799997
100035,MANATEE MEMORIAL HOSPITAL,OP-26,1059,4,44,215,130,283,425,01/01/2013,12/31/2013,27.49675063500007,82.56125150699995
100038,MEMORIAL REGIONAL HOSPITAL,OP-26,591,283,180,1155,3051,361,407,01/01/2013,12/31/2013,26.018208290000075,80.18076172399998
100039,BROWARD HEALTH MEDICAL CENTER,OP-26,2522,76,274,1698,429,406,519,01/01/2013,12/31/2013,26.100846485000034,80.14206118699997
100040,ST VINCENT'S MEDICAL CENTER,OP-26,3859,871,158,1700,3009,609,2271,01/01/2013,12/31/2013,30.30789192000003,81.68909055399996
100043,MEASE DUNEDIN HOSPITAL,OP-26,168,17,95,54,17,42,36,01/01/2013,12/31/2013,28.014279576000035,82.78351053699998
100044,MARTIN MEDICAL CENTER,OP-26,7269,0,892,6275,1590,639,948,01/01/2013,12/31/2013,27.199302556000077,80.24301859299999
100045,FLORIDA HOSPITAL DELAND,OP-26,1828,0,10,38,10,22,165,01/01/2013,12/31/2013,29.042648462000045,81.31693118199996
100046,FLORIDA HOSPITAL ZEPHYRHILLS,OP-26,890,0,16,151,36,96,95,01/01/2013,12/31/2013,28.260784971000078,82.18801640399994
100047,BAYFRONT HEALTH PUNTA GORDA,OP-26,0,0,3,89,2188,0,1,01/01/2013,12/31/2013,26.94149111100006,82.04031314099996
100048,JAY HOSPITAL,OP-26,193,0,69,2,3,0,2,01/01/2013,12/31/2013,30.949828119000074,87.15173254299998
100049,HIGHLANDS REGIONAL MEDICAL CENTER,OP-26,30,0,14,46,5038,17,321,01/01/2013,12/31/2013,27.466480192000063,81.43367922299996
100050,PALM SPRINGS GENERAL HOSPITAL,OP-26,1197,0,158,25,411,24,209,01/01/2013,12/31/2013,25.867578555000023,80.31221057599998
100051,SOUTH LAKE HOSPITAL,OP-26,960,89,0,339,344,259,55,01/01/2013,12/31/2013,28.55028730600003,81.71751395799998
100052,WINTER HAVEN HOSPITAL,OP-26,2020,63,952,203,160,488,390,01/01/2013,12/31/2013,28.027663329000063,81.72599007399998
100053,HIALEAH HOSPITAL,OP-26,9,161,61,172,6,101,15,01/01/2013,12/31/2013,25.844938522000064,80.26909219099997
100054,TWIN CITIES HOSPITAL,OP-26,798,0,276,188,18,63,62,01/01/2013,12/31/2013,30.533217172000036,86.49313089199995
100055,FLORIDA HOSPITAL NORTH PINELLAS,OP-26,352,2,59,424,225,480,372,01/01/2013,12/31/2013,28.132557848000033,82.75862009799994
100057,FLORIDA HOSPITAL WATERMAN,OP-26,798,183,26,130,78,181,269,01/01/2013,12/31/2013,28.824416579000058,81.70965287499996
100062,MUNROE REGIONAL MEDICAL CENTER,OP-26,1215,0,108,555,265,676,340,01/01/2013,12/31/2013,29.173952023000027,82.13790838199998
100063,MORTON PLANT NORTH BAY HOSPITAL,OP-26,407,0,19,94,94,141,174,01/01/2013,12/31/2013,28.253860859000042,82.71542911899996
100067,ST ANTHONY'S HOSPITAL,OP-26,1517,0,113,150,1249,316,942,01/01/2013,12/31/2013,27.77930440700004,82.65085999999997
100068,FLORIDA HOSPITAL MEMORIAL MEDICAL CENTER,OP-26,1313,1,2,109,34,124,103,01/01/2013,12/31/2013,29.242675044000066,81.10923813599999
100069,FLORIDA HOSPITAL CARROLLWOOD,OP-26,77,0,7,16,9,27,7,01/01/2013,12/31/2013,28.014183470000035,82.50496723399993
100070,VENICE REGIONAL BAYFRONT HEALTH,OP-26,193,0,63,2992,4776,3,649,01/01/2013,12/31/2013,27.09088241200004,82.44439169499998
100071,BAYFRONT HEALTH BROOKSVILLE,OP-26,588,0,16,444,1761,294,83,01/01/2013,12/31/2013,28.54110314600007,82.44346905599997
100072,FLORIDA HOSPITAL FISH MEMORIAL,OP-26,117,0,1538,1359,3088,0,82,01/01/2013,12/31/2013,28.91132751200007,81.28309096999999
100073,HOLY CROSS HOSPITAL INC,OP-26,97698,0,2856,2414,8640,74665,36451,01/01/2013,12/31/2013,26.18539853300007,80.11768406299996
100075,ST JOSEPHS HOSPITAL,OP-26,8333,37,1009,1158,1765,1168,947,01/01/2013,12/31/2013,27.981367442000078,82.49287980999998
100077,BAYFRONT HEALTH PORT CHARLOTTE,OP-26,94,0,146,2,2,29,621,01/01/2013,12/31/2013,26.989349100000027,82.09665032699996
100080,JFK MEDICAL CENTER,OP-26,1966,22,43,567,2209,225,981,01/01/2013,12/31/2013,26.597037585000066,80.09124620799997
100081,HEALTHMARK REGIONAL MEDICAL CENTER,OP-26,276,0,27,23,10,2,19,01/01/2013,12/31/2013,30.658844247000047,86.11917696799998
100084,LEESBURG REGIONAL MEDICAL CENTER,OP-26,1898,24,273,1978,461,3397,327,01/01/2013,12/31/2013,28.806618511000067,81.86926018599996
100086,BROWARD HEALTH NORTH,OP-26,1070,208,274,461,1047,633,431,01/01/2013,12/31/2013,26.275177554000038,80.12066811099999
100087,SARASOTA MEMORIAL HOSPITAL,OP-26,5081,436,4076,2736,6059,1434,2079,01/01/2013,12/31/2013,27.317819706000023,82.52977116799997
100088,BAPTIST MEDICAL CENTER,OP-26,6085,304,1247,2736,539,957,1759,01/01/2013,12/31/2013,30.31626324700005,81.66443057099997
100090,FLAGLER HOSPITAL,OP-26,1466,100,115,394,120,356,632,01/01/2013,12/31/2013,29.862607592000074,81.32007114999999
100092,WUESTHOFF MEDICAL CENTER  ROCKLEDGE,OP-26,74,0,243,209,1012,15,331,01/01/2013,12/31/2013,28.334527500000036,80.72267986099996
100093,BAPTIST HOSPITAL,OP-26,1190,358,397,188,39,458,1280,01/01/2013,12/31/2013,30.42870751600003,87.23175851499997
100099,LAKE WALES MEDICAL CENTER,OP-26,1005,369,0,0,0,0,93,01/01/2013,12/31/2013,27.89585035600004,81.56470173199995
100102,SHANDS LAKE SHORE REGIONAL MEDICAL CENTER,OP-26,12,0,0,8,3,0,9,01/01/2013,12/31/2013,30.193453051000063,82.63271026399997
100105,INDIAN RIVER MEMORIAL HOSPITAL INC,OP-26,1326,0,54,262,1208,329,1679,01/01/2013,12/31/2013,27.657639396000036,80.39433434699998
100106,DOCTOR'S MEMORIAL HOSPITAL INC,OP-26,903,28,16,124,61,10,20,01/01/2013,12/31/2013,30.11966112500005,83.59086747499998
100107,LEHIGH REGIONAL MEDICAL CENTER,OP-26,310,0,10,58,683,40,47,01/01/2013,12/31/2013,26.614338977000045,81.65851837499997
100109,FLORIDA HOSPITAL HEARTLAND MEDICAL CENTER,OP-26,713,161,13,630,1703,190,599,01/01/2013,12/31/2013,27.539032677000023,81.50593029199996
100110,OSCEOLA REGIONAL MEDICAL CENTER,OP-26,963,0,9,1267,1260,127,318,01/01/2013,12/31/2013,28.300863586000048,81.41034090799997
100113,UF HEALTH SHANDS HOSPITAL,OP-26,6671,776,2490,1841,334,790,1407,01/01/2013,12/31/2013,29.639290121000045,82.34322133999996
100117,BAPTIST MEDICAL CENTER  BEACHES,OP-26,1174,84,244,663,108,319,224,01/01/2013,12/31/2013,30.274522991000026,81.39976987399996
100118,FLORIDA HOSPITAL FLAGLER,OP-26,2561,0,83,506,31,390,183,01/01/2013,12/31/2013,29.47732731700006,81.18969941799998
100121,BARTOW REGIONAL MEDICAL CENTER,OP-26,434,0,84,405,3179,62,47,01/01/2013,12/31/2013,27.917749008000044,81.84352569799995
100122,NORTH OKALOOSA MEDICAL CENTER,OP-26,1605,611,534,25,79,124,313,01/01/2013,12/31/2013,30.769962192000037,86.51237595099997
100124,SANTA ROSA MEDICAL CENTER,OP-26,25,0,35,1085,2967,159,50,01/01/2013,12/31/2013,30.63231653400004,87.06761624299997
100125,HOMESTEAD HOSPITAL,OP-26,494,81,82,89,90,74,46,01/01/2013,12/31/2013,25.479505019000044,80.43047386799998
100126,PALMS OF PASADENA HOSPITAL,OP-26,3,0,31,21,66,14,47,01/01/2013,12/31/2013,27.753334989000052,82.73831689199994
100127,MORTON PLANT HOSPITAL,OP-26,2161,155,500,821,1637,1007,2153,01/01/2013,12/31/2013,27.95187100100003,82.80367313099998
100128,TAMPA GENERAL HOSPITAL,OP-26,5179,557,272,704,168,939,2788,01/01/2013,12/31/2013,27.93755834800004,82.45910748599994
100130,LAKESIDE MEDICAL CENTER,OP-26,60,0,1,84,797,15,15,01/01/2013,12/31/2013,26.725643645000048,80.67101039299996
100131,AVENTURA HOSPITAL AND MEDICAL CENTER,OP-26,1192,0,20,479,724,158,230,01/01/2013,12/31/2013,25.969393024000055,80.14448789199997
100132,SOUTH FLORIDA BAPTIST HOSPITAL,OP-26,1548,186,110,242,323,100,154,01/01/2013,12/31/2013,28.015960755000037,82.13796193499996
100135,TALLAHASSEE MEMORIAL HEALTHCARE,OP-26,1767,1,607,179,49,377,763,01/01/2013,12/31/2013,30.45504990300003,84.26351144799997
100137,HEART OF FLORIDA REGIONAL MEDICAL CENTER,OP-26,821,71,82,278,806,257,163,01/01/2013,12/31/2013,28.180370629000038,81.63999182599997
100140,BAPTIST MEDICAL CENTER  NASSAU,OP-26,2183,765,169,276,49,91,105,01/01/2013,12/31/2013,30.653765123000028,81.44929533199996
100142,JACKSON HOSPITAL,OP-26,839,0,19,101,23,112,6,01/01/2013,12/31/2013,30.786336262000077,85.24125947899995
100150,LOWER KEYS MEDICAL CENTER,OP-26,41,0,7,159,15,2,78,01/01/2013,12/31/2013,24.581636658000036,81.74114603699996
100151,MAYO CLINIC FLORIDA,OP-26,4190,432,2851,636,827,545,1469,01/01/2013,12/31/2013,30.265338152000027,81.43767187999998
100154,SOUTH MIAMI HOSPITAL,OP-26,798,96,14,959,3944,360,144,01/01/2013,12/31/2013,25.702942834000055,80.29374065099995
100156,LAKE CITY MEDICAL CENTER,OP-26,477,0,20,219,23,212,60,01/01/2013,12/31/2013,30.183981295000024,82.68631210899997
100157,LAKELAND REGIONAL MEDICAL CENTER,OP-26,1764,0,45,427,117,679,836,01/01/2013,12/31/2013,28.06087093900004,81.95328111899994
100161,CENTRAL FLORIDA REGIONAL HOSPITAL,OP-26,887,0,35,157,163,178,189,01/01/2013,12/31/2013,28.816198169000074,81.28383448699998
100166,DOCTORS HOSPITAL OF SARASOTA,OP-26,666,0,38,343,874,278,296,01/01/2013,12/31/2013,27.298987964000048,82.45485095699996
100167,PLANTATION GENERAL HOSPITAL,OP-26,775,0,26,675,204,139,620,01/01/2013,12/31/2013,26.126829288000067,80.20421065899995
100168,BOCA RATON REGIONAL HOSPITAL,OP-26,419,0,575,952,2408,0,1303,01/01/2013,12/31/2013,26.359585606000053,80.10211848999995
100173,FLORIDA HOSPITAL TAMPA,OP-26,1695,111,477,1090,3351,475,1355,01/01/2013,12/31/2013,28.06923765700003,82.42365983999997
100175,DESOTO MEMORIAL HOSPITAL,OP-26,544,0,283,193,8,39,12,01/01/2013,12/31/2013,27.227469306000046,81.85163588799998
100176,PALM BEACH GARDENS MEDICAL CENTER,OP-26,598,0,62,437,1043,89,411,01/01/2013,12/31/2013,26.830593472000032,80.08789817999997
100177,CAPE CANAVERAL HOSPITAL,OP-26,1874,0,749,459,107,365,174,01/01/2013,12/31/2013,28.35793350600005,80.62066212899998
100179,MEMORIAL HOSPITAL JACKSONVILLE,OP-26,3767,4,158,698,772,392,858,01/01/2013,12/31/2013,30.288487494000037,81.60228916499995
100180,ST PETERSBURG GENERAL HOSPITAL,OP-26,749,2,28,362,1116,207,118,01/01/2013,12/31/2013,27.806333038000048,82.72675028699996
100181,LARKIN COMMUNITY HOSPITAL,OP-26,968,1003,4,223,470,3,121,01/01/2013,12/31/2013,25.705311925000046,80.29343068699995
100183,CORAL GABLES HOSPITAL,OP-26,617,453,232,140,465,141,92,01/01/2013,12/31/2013,25.74466232800006,80.25440995299994
100187,PALMETTO GENERAL HOSPITAL,OP-26,514,57,448,864,2633,388,191,01/01/2013,12/31/2013,25.884148367000023,80.32671089099995
100189,NORTHWEST MEDICAL CENTER,OP-26,982,0,1036,258,99,299,186,01/01/2013,12/31/2013,26.262690228000054,80.20175053699995
100191,MEDICAL CENTER OF TRINITY,OP-26,427,0,8,52,80,288,191,01/01/2013,12/31/2013,28.205985915000042,82.66005388799994
100200,BROWARD HEALTH IMPERIAL POINT,OP-26,1128,733,185,1115,2688,256,274,01/01/2013,12/31/2013,26.20683797600003,80.10809998499997
100204,NORTH FLORIDA REGIONAL MEDICAL CENTER,OP-26,2248,0,14,631,1011,639,898,01/01/2013,12/31/2013,29.659729150000032,82.41214550799998
100206,MEMORIAL HOSPITAL OF TAMPA,OP-26,1593,348,412,333,537,116,141,01/01/2013,12/31/2013,27.937477689000048,82.48997020199994
100209,KENDALL REGIONAL MEDICAL CENTER,OP-26,1728,163,29,225,65,231,181,01/01/2013,12/31/2013,25.73192937500005,80.38508668299994
100211,BAYFRONT HEALTH DADE CITY,OP-26,125,0,7,4,9,18,120,01/01/2013,12/31/2013,28.348361795000073,82.20165892099999
100212,MARION COMMUNTIY HOSPITAL,OP-26,2298,0,88,2483,484,268,518,01/01/2013,12/31/2013,29.174930216000064,82.13784658299994
100213,BLAKE MEDICAL CENTER,OP-26,1032,0,15,190,61,117,451,01/01/2013,12/31/2013,27.482444975000078,82.62048237899995
100217,SEBASTIAN RIVER MEDICAL CENTER,OP-26,1562,0,52,474,124,369,469,01/01/2013,12/31/2013,27.843219413000043,80.48780586199996
100220,GULF COAST MEDICAL CENTER LEE MEM HEALTH SYSTEM,OP-26,1666,1,25,226,59,484,440,01/01/2013,12/31/2013,26.54458334000003,81.85163755199994
100223,FORT WALTON BEACH MEDICAL CENTER,OP-26,2273,0,157,645,414,127,357,01/01/2013,12/31/2013,30.45462118200004,86.63209262199996
100224,UNIVERSITY HOSPITAL AND MEDICAL CENTER,OP-26,246,0,34,177,781,56,197,01/01/2013,12/31/2013,26.21185040200004,80.25257077399993
100226,ORANGE PARK MEDICAL CENTER,OP-26,1990,0,106,231,2585,244,652,01/01/2013,12/31/2013,30.164808478000054,81.73794154099994
100228,WESTSIDE REGIONAL MEDICAL CENTER,OP-26,296,0,7,198,31,41,362,01/01/2013,12/31/2013,26.120918028000062,80.25840631999995
100230,MEMORIAL HOSPITAL PEMBROKE,OP-26,282,0,310,787,1437,396,92,01/01/2013,12/31/2013,26.03092256800005,80.24531946499997
100231,WEST FLORIDA HOSPITAL,OP-26,1654,0,75,363,89,398,955,01/01/2013,12/31/2013,30.515089474000035,87.21706461699995
100232,PUTNAM COMMUNITY MEDICAL CENTER,OP-26,427,172,16,125,37,105,229,01/01/2013,12/31/2013,29.64259090200005,81.69348881299999
100234,WEST PALM HOSPITAL,OP-26,576,0,934,406,155,85,90,01/01/2013,12/31/2013,26.758988376000048,80.08657075099995
100236,FAWCETT MEMORIAL HOSPITAL,OP-26,683,0,446,350,1524,146,303,01/01/2013,12/31/2013,26.987847676000058,82.09831767899999
100238,NORTHSIDE HOSPITAL,OP-26,595,1,150,126,21,114,143,01/01/2013,12/31/2013,27.826250230000028,82.70004154699996
100239,EDWARD WHITE HOSPITAL,OP-26,91,0,876,704,849,41,61,01/01/2013,12/31/2013,27.78107893600003,82.66466548099999
100240,ANNE BATES LEACH EYE HOSPITAL,OP-26,0,10136,0,0,0,0,0,01/01/2013,12/31/2013,25.79136317900003,80.21037997599996
100242,GULF COAST REGIONAL MEDICAL CENTER,OP-26,5159,0,96,871,2375,203,307,01/01/2013,12/31/2013,30.189652826000042,85.66515072799996
100243,BRANDON REGIONAL HOSPITAL,OP-26,2297,0,145,186,210,353,642,01/01/2013,12/31/2013,27.933986275000052,82.28825635599998
100244,CAPE CORAL HOSPITAL,OP-26,1474,0,2288,907,102,459,297,01/01/2013,12/31/2013,26.63928934100005,81.94091137399994
100246,LAWNWOOD REGIONAL MEDICAL CENTER & HEART INSTITUTE,OP-26,761,0,32,117,48,175,401,01/01/2013,12/31/2013,27.43177000700007,80.34731945099998
100248,LARGO MEDICAL CENTER,OP-26,1235,64,120,707,883,75,370,01/01/2013,12/31/2013,27.914841968000076,82.80269775299996
100249,SEVEN RIVERS REGIONAL MEDICAL CENTER,OP-26,236,0,43,480,1838,174,249,01/01/2013,12/31/2013,28.951414244000034,82.62610307999995
100252,RAULERSON HOSPITAL,OP-26,2529,0,1,201,104,187,130,01/01/2013,12/31/2013,27.259820753000042,80.82991005499997
100253,JUPITER MEDICAL CENTER,OP-26,2266,0,2092,707,4187,584,481,01/01/2013,12/31/2013,26.922771409000063,80.09456182599996
100254,CAPITAL REGIONAL MEDICAL CENTER,OP-26,1523,0,17,735,1176,112,111,01/01/2013,12/31/2013,30.474733108000066,84.23155889599997
100255,TAMPA COMMUNITY HOSPITAL,OP-26,1071,71,310,245,625,148,11,01/01/2013,12/31/2013,28.00238111400006,82.57511921899999
100256,REGIONAL MEDICAL CENTER BAYONET POINT,OP-26,224,0,11,386,934,93,229,01/01/2013,12/31/2013,28.359935264000057,82.68892657599997
100258,DELRAY MEDICAL CENTER,OP-26,1046,0,80,567,3376,410,579,01/01/2013,12/31/2013,26.439223259000073,80.12625994599995
100259,SOUTH BAY HOSPITAL,OP-26,1013,0,3,308,33,119,99,01/01/2013,12/31/2013,27.71242783200006,82.36603076999995
100260,ST LUCIE MEDICAL CENTER,OP-26,350,0,13,409,270,21,272,01/01/2013,12/31/2013,27.289230442000076,80.29542182999995
100264,OAK HILL HOSPITAL,OP-26,868,0,25,202,63,210,411,01/01/2013,12/31/2013,28.533397513000068,82.53394357999997
100265,MORTON PLANT MEASE HEALTHCARE COUNTRYSIDE,OP-26,1611,0,75,517,1072,885,677,01/01/2013,12/31/2013,28.003883896000048,82.69501922899997
100266,GULF BREEZE HOSPITAL,OP-26,860,80,741,334,35,38,107,01/01/2013,12/31/2013,30.358677588000035,87.15681756299995
100267,ENGLEWOOD COMMUNITY HOSPITAL,OP-26,234,82,0,1146,1412,62,45,01/01/2013,12/31/2013,26.94978952400004,82.33701556599993
100268,WEST BOCA MEDICAL CENTER,OP-26,633,37,74,717,1552,324,104,01/01/2013,12/31/2013,26.355234777000078,80.20322761099999
100269,PALMS WEST HOSPITAL,OP-26,732,0,19,176,90,254,381,01/01/2013,12/31/2013,26.681997514000045,80.25279892599997
100275,WELLINGTON REGIONAL MEDICAL CENTER,OP-26,470,572,119,290,118,469,263,01/01/2013,12/31/2013,26.65084788000007,80.20493890099993
100276,BROWARD HEALTH CORAL SPRINGS,OP-26,1294,0,5,666,1320,300,266,01/01/2013,12/31/2013,26.26842974300007,80.25418166399999
100281,MEMORIAL HOSPITAL WEST,OP-26,528,0,116,604,1429,520,291,01/01/2013,12/31/2013,26.01402089800007,80.31196053099995
100284,WESTCHESTER GENERAL HOSPITAL,OP-26,13,0,1,1,3,28,2,01/01/2013,12/31/2013,25.747113252000076,80.31725757099997
100285,MEMORIAL HOSPITAL MIRAMAR,OP-26,397,15,34,281,746,657,41,01/01/2013,12/31/2013,25.991004849000035,80.37599439099995
100286,PHYSICIANS REGIONAL MEDICAL CENTER - PINE RIDGE,OP-26,3426,486,347,3322,701,704,816,01/01/2013,12/31/2013,26.211797201000024,81.73084692399993
100287,GOOD SAMARITAN MEDICAL CENTER,OP-26,862,186,348,585,1327,288,421,01/01/2013,12/31/2013,26.725019108000026,80.04997888999998
100288,ST MARY'S MEDICAL CENTER,OP-26,627,0,136,978,4430,84,62,01/01/2013,12/31/2013,26.753258078000044,80.06323934899996
100289,CLEVELAND CLINIC HOSPITAL,OP-26,6894,385,393,1022,1174,629,880,01/01/2013,12/31/2013,26.08038210600006,80.36541262799994
100290,VILLAGES REGIONAL HOSPITAL, THE,OP-26,1613,8,343,1634,1338,255,320,01/01/2013,12/31/2013,28.94944729900004,81.95804695699997
100291,WUESTHOFF MELBOURNE,OP-26,398,0,125,873,893,376,216,01/01/2013,12/31/2013,28.110223705000067,80.67262856999997
100292,SACRED HEART HOSPITAL ON THE EMERALD COAST,OP-26,1763,0,234,186,25,175,281,01/01/2013,12/31/2013,30.376987347000068,86.30749483499994
100296,DOCTORS HOSPITAL,OP-26,312,0,94,1560,18,54,78,01/01/2013,12/31/2013,25.72462532000003,80.27325077599994
100299,LAKEWOOD RANCH MEDICAL CENTER,OP-26,478,0,42,191,43,206,110,01/01/2013,12/31/2013,27.391942538000023,82.43369390999999
100302,ST CLOUD REGIONAL MEDICAL CENTER,OP-26,85,405,0,120,13,252,0,01/01/2013,12/31/2013,28.24245787800004,81.30246082699995
100307,ST VINCENT'S MEDICAL CENTER SOUTHSIDE,OP-26,887,0,131,518,117,515,393,01/01/2013,12/31/2013,30.253705867000065,81.58402895499995
100313,SACRED HEART HOSPITAL ON THE GULF,OP-26,212,0,6,28,4,0,12,01/01/2013,12/31/2013,29.77658993600005,85.28748175699997
100314,WEST KENDALL BAPTIST HOSPITAL,OP-26,86,0,0,184,14,22,0,01/01/2013,12/31/2013,25.677226784000027,80.45732550899999
100315,VIERA HOSPITAL,OP-26,1258,0,315,1222,58,22,39,01/01/2013,12/31/2013,28.229713641000046,80.72830299699996
100316,PALM BAY HOSPITAL,OP-26,746,0,66,835,19,69,18,01/01/2013,12/31/2013,27.998358206000034,80.61201384099996
100319,FLORIDA HOSPITAL WESLEY CHAPEL,OP-26,254,0,61,84,78,166,110,01/01/2013,12/31/2013,28.193920311000056,82.35336949699996
100320,POINCIANA MEDICAL CENTER,OP-26,138,79,0,0,0,1,0,01/01/2013,12/31/2013,28.142717136000044,81.47294562399998
100321,ST VINCENTS MEDICAL CENTER - CLAY COUNTY INC,OP-26,113,0,0,29,7,8,23,01/01/2013,12/31/2013,30.08281260700005,81.86072603299993
100322,REGIONAL GENERAL HOSPITAL WILLISTON,OP-26,NA,NA,NA,NA,NA,NA,NA,01/01/2013,12/31/2013,29.384020015000033,82.45575895499996
101300,FLORIDA HOSPITAL WAUCHULA,OP-26,NA,NA,NA,NA,NA,NA,NA,01/01/2013,12/31/2013,27.536402957000064,81.81713095699996
101301,SHANDS LIVE OAK REGIONAL MEDICAL CENTER,OP-26,215,0,0,0,3,11,1,01/01/2013,12/31/2013,30.28995065400005,83.00360014399996
101305,GEORGE E WEEMS MEMORIAL HOSPITAL,OP-26,NA,NA,NA,NA,NA,NA,NA,01/01/2013,12/31/2013,29.724879792000024,84.99088102399998
101309,HENDRY REGIONAL MEDICAL CENTER,OP-26,NA,NA,NA,NA,NA,NA,NA,01/01/2013,12/31/2013,26.753343347000055,80.92705086899997
101312,FISHERMEN'S HOSPITAL,OP-26,NA,NA,NA,NA,NA,NA,NA,01/01/2013,12/31/2013,24.711013708000053,81.09502359799995
101313,MARINERS HOSPITAL,OP-26,571,7,8,82,47,0,19,01/01/2013,12/31/2013,25.00540097100003,80.52134050799998
110001,HAMILTON MEDICAL CENTER,OP-26,3578,3,42,60,78,461,167,01/01/2013,12/31/2013,34.78888774700005,84.98424090099996
110002,UPSON REGIONAL MEDICAL CENTER,OP-26,302,237,43,149,27,395,80,01/01/2013,12/31/2013,32.88718258000006,84.33558113699996
110003,MAYO CLINIC HEALTH SYSTEM IN WAYCROSS,OP-26,2228,989,92,460,1152,106,464,01/01/2013,12/31/2013,31.226013540000054,82.34916085199995
110004,HUTCHESON MEDICAL CENTER,OP-26,581,125,292,47,17,77,62,01/01/2013,12/31/2013,34.947261136000066,85.26290149399995
110005,NORTHSIDE HOSPITAL FORSYTH,OP-26,3766,916,2084,701,122,339,91,01/01/2013,12/31/2013,34.17882827200003,84.13858242899994
110006,ST MARY'S HOSPITAL,OP-26,904,213,300,769,458,382,267,01/01/2013,12/31/2013,33.945938289000026,83.40443372499999
110007,PHOEBE PUTNEY MEMORIAL HOSPITAL,OP-26,12757,706,25,529,275,1034,2268,01/01/2013,12/31/2013,31.40303099600004,83.97599662499994
110008,NORTHSIDE HOSPITAL CHEROKEE,OP-26,571,723,111,376,49,608,48,01/01/2013,12/31/2013,34.24575740800003,84.49213244899994
110010,EMORY UNIVERSITY HOSPITAL,OP-26,192,1,48,91,31,232,61,01/01/2013,12/31/2013,33.79233912300003,84.32099324899997
110011,TANNER MEDICAL CENTER - CARROLLTON,OP-26,1412,0,1362,1458,2720,272,674,01/01/2013,12/31/2013,33.56967218500006,85.07254371299996
110015,TANNER MEDICAL CENTER VILLA RICA,OP-26,1249,0,194,224,15,104,126,01/01/2013,12/31/2013,33.74420251200007,84.91870050299997
110016,WEST GEORGIA MEDICAL CENTER, INC,OP-26,3813,550,190,1518,1243,1471,1444,01/01/2013,12/31/2013,33.03202404600006,85.05583101099995
110018,NEWTON MEDICAL CENTER,OP-26,400,460,2373,1377,841,113,200,01/01/2013,12/31/2013,33.602141182000025,83.84856116199995
110023,GORDON HOSPITAL,OP-26,203,584,0,195,13,79,61,01/01/2013,12/31/2013,34.51188330700006,84.92556140899995
110024,CANDLER HOSPITAL,OP-26,2722,29,52,672,4826,1034,549,01/01/2013,12/31/2013,32.02767576600007,81.10166466099997
110025,SOUTHEAST GEORGIA HEALTH SYSTEM - BRUNSWICK CAMPUS,OP-26,854,132,153,746,202,466,276,01/01/2013,12/31/2013,31.173855565000054,81.48490346799997
110026,ELBERT MEMORIAL HOSPITAL,OP-26,548,97,0,16,40,5,0,01/01/2013,12/31/2013,34.11280943700007,82.87540270799997
110027,TY COBB REGIONAL MEDICAL CENTER, LLC,OP-26,688,315,7,83,48,51,1,01/01/2013,12/31/2013,34.43813357300007,83.13012451099996
110028,UNIVERSITY HOSPITAL,OP-26,2112,559,258,1129,2291,324,954,01/01/2013,12/31/2013,33.47343476100008,81.98248109299999
110029,NORTHEAST GEORGIA MEDICAL CENTER, INC,OP-26,2511,0,1237,3033,4116,368,1147,01/01/2013,12/31/2013,34.30236786200004,83.81873665199998
110030,CARTERSVILLE MEDICAL CENTER,OP-26,3268,451,327,457,98,173,273,01/01/2013,12/31/2013,34.19930455600007,84.79394239099997
110031,SPALDING REGIONAL HOSPITAL,OP-26,1613,700,167,936,4588,179,509,01/01/2013,12/31/2013,33.25799294600006,84.26522811499996
110032,STEPHENS COUNTY HOSPITAL,OP-26,926,236,36,297,195,695,51,01/01/2013,12/31/2013,34.59342249300005,83.34788117499994
